{"type": "FeatureCollection", "features": [{"type": "Feature", "properties": {"state": "Andamanand Nicobar", "name": "Nicobar Islands"}, "geometry": {"type": "Point", "coordinates": [93.59917726793279, 7.525383432175056]}}, {"type": "Feature", "properties": {"state": "Andamanand Nicobar", "name": "Northand Middle Andaman"}, "geometry": {"type": "Point", "coordinates": [92.87278753883423, 12.852921876234314]}}, {"type": "Feature", "properties": {"state": "Andamanand Nicobar", "name": "South Andaman"}, "geometry": {"type": "Point", "coordinates": [92.66499512807032, 11.527771245384551]}}, {"type": "Feature", "properties": {"state": "Andhra Pradesh", "name": "Anantapur"}, "geometry": {"type": "Point", "coordinates": [77.5707733554582, 14.475147213014674]}}, {"type": "Feature", "properties": {"state": "Andhra Pradesh", "name": "Chittoor"}, "geometry": {"type": "Point", "coordinates": [79.00394769971601, 13.4566421868744]}}, {"type": "Feature", "properties": {"state": "Andhra Pradesh", "name": "East Godavari"}, "geometry": {"type": "Point", "coordinates": [82.00102757144928, 17.18388927729589]}}, {"type": "Feature", "properties": {"state": "Andhra Pradesh", "name": "Guntur"}, "geometry": {"type": "Point", "coordinates": [80.08129157673834, 16.291404576871017]}}, {"type": "Feature", "properties": {"state": "Andhra Pradesh", "name": "Krishna"}, "geometry": {"type": "Point", "coordinates": [80.79287401017713, 16.550437083562514]}}, {"type": "Feature", "properties": {"state": "Andhra Pradesh", "name": "Kurnool"}, "geometry": {"type": "Point", "coordinates": [78.00005871238214, 15.52803384801278]}}, {"type": "Feature", "properties": {"state": "Andhra Pradesh", "name": "Nellore"}, "geometry": {"type": "Point", "coordinates": [79.719998226983, 14.435239253475796]}}, {"type": "Feature", "properties": {"state": "Andhra Pradesh", "name": "Prakasam"}, "geometry": {"type": "Point", "coordinates": [79.50953680430233, 15.611291664731722]}}, {"type": "Feature", "properties": {"state": "Andhra Pradesh", "name": "Srikakulam"}, "geometry": {"type": "Point", "coordinates": [83.97937227317145, 18.571218053106147]}}, {"type": "Feature", "properties": {"state": "Andhra Pradesh", "name": "Visakhapatnam"}, "geometry": {"type": "Point", "coordinates": [82.68191425286946, 17.88473056891491]}}, {"type": "Feature", "properties": {"state": "Andhra Pradesh", "name": "Vizianagaram"}, "geometry": {"type": "Point", "coordinates": [83.36386435684922, 18.465225466032603]}}, {"type": "Feature", "properties": {"state": "Andhra Pradesh", "name": "West Godavari"}, "geometry": {"type": "Point", "coordinates": [81.39223417721088, 16.886904353160286]}}, {"type": "Feature", "properties": {"state": "Andhra Pradesh", "name": "Y. S. R."}, "geometry": {"type": "Point", "coordinates": [78.77428163679963, 14.450771953605015]}}, {"type": "Feature", "properties": {"state": "Arunachal Pradesh", "name": "Anjaw"}, "geometry": {"type": "Point", "coordinates": [96.68177305429414, 27.872173517353872]}}, {"type": "Feature", "properties": {"state": "Arunachal Pradesh", "name": "Anjaw"}, "geometry": {"type": "Point", "coordinates": [96.87994817200342, 28.145299402310954]}}, {"type": "Feature", "properties": {"state": "Arunachal Pradesh", "name": "Changlang"}, "geometry": {"type": "Point", "coordinates": [96.34487504541656, 27.370333254925338]}}, {"type": "Feature", "properties": {"state": "Arunachal Pradesh", "name": "Dibang Valley"}, "geometry": {"type": "Point", "coordinates": [95.94279485764389, 28.95511253616365]}}, {"type": "Feature", "properties": {"state": "Arunachal Pradesh", "name": "East Kameng"}, "geometry": {"type": "Point", "coordinates": [93.03196110607226, 27.29402882739985]}}, {"type": "Feature", "properties": {"state": "Arunachal Pradesh", "name": "East Siang"}, "geometry": {"type": "Point", "coordinates": [95.36908828561246, 27.975445883812643]}}, {"type": "Feature", "properties": {"state": "Arunachal Pradesh", "name": "East Siang"}, "geometry": {"type": "Point", "coordinates": [95.09072565408287, 28.168252437097156]}}, {"type": "Feature", "properties": {"state": "Arunachal Pradesh", "name": "Kurung Kumey"}, "geometry": {"type": "Point", "coordinates": [93.31783998456795, 28.038043938260376]}}, {"type": "Feature", "properties": {"state": "Arunachal Pradesh", "name": "Lohit"}, "geometry": {"type": "Point", "coordinates": [96.22567443770383, 27.856501777036904]}}, {"type": "Feature", "properties": {"state": "Arunachal Pradesh", "name": "Lohit"}, "geometry": {"type": "Point", "coordinates": [96.2957189095381, 28.26358460690963]}}, {"type": "Feature", "properties": {"state": "Arunachal Pradesh", "name": "Longding"}, "geometry": {"type": "Point", "coordinates": [95.33570208546487, 26.858448781900968]}}, {"type": "Feature", "properties": {"state": "Arunachal Pradesh", "name": "Lower Dibang Valley"}, "geometry": {"type": "Point", "coordinates": [95.77483149869298, 28.100580968834606]}}, {"type": "Feature", "properties": {"state": "Arunachal Pradesh", "name": "Lower Dibang Valley"}, "geometry": {"type": "Point", "coordinates": [95.83180029231895, 28.449474024627314]}}, {"type": "Feature", "properties": {"state": "Arunachal Pradesh", "name": "Lower Subansiri"}, "geometry": {"type": "Point", "coordinates": [93.87235909829343, 27.671041884905705]}}, {"type": "Feature", "properties": {"state": "Arunachal Pradesh", "name": "Namsai"}, "geometry": {"type": "Point", "coordinates": [95.89951600273092, 27.652488304563676]}}, {"type": "Feature", "properties": {"state": "Arunachal Pradesh", "name": "Papum Pare"}, "geometry": {"type": "Point", "coordinates": [93.5881668580598, 27.274590285373655]}}, {"type": "Feature", "properties": {"state": "Arunachal Pradesh", "name": "Tawang"}, "geometry": {"type": "Point", "coordinates": [91.91836799559422, 27.655687626587277]}}, {"type": "Feature", "properties": {"state": "Arunachal Pradesh", "name": "Tirap"}, "geometry": {"type": "Point", "coordinates": [95.53013507011771, 27.034604581747445]}}, {"type": "Feature", "properties": {"state": "Arunachal Pradesh", "name": "Upper Siang"}, "geometry": {"type": "Point", "coordinates": [94.90815806185373, 28.828378790470595]}}, {"type": "Feature", "properties": {"state": "Arunachal Pradesh", "name": "Upper Subansiri"}, "geometry": {"type": "Point", "coordinates": [93.93245019630307, 28.29167319450659]}}, {"type": "Feature", "properties": {"state": "Arunachal Pradesh", "name": "West Kameng"}, "geometry": {"type": "Point", "coordinates": [92.51481347928063, 27.433913689968872]}}, {"type": "Feature", "properties": {"state": "Arunachal Pradesh", "name": "West Siang"}, "geometry": {"type": "Point", "coordinates": [94.50826314620916, 28.314142935501525]}}, {"type": "Feature", "properties": {"state": "Assam", "name": "Baksa"}, "geometry": {"type": "Point", "coordinates": [91.34153668527011, 26.666007272375065]}}, {"type": "Feature", "properties": {"state": "Assam", "name": "Barpeta"}, "geometry": {"type": "Point", "coordinates": [91.00366962194254, 26.337741193302104]}}, {"type": "Feature", "properties": {"state": "Assam", "name": "Bongaigaon"}, "geometry": {"type": "Point", "coordinates": [90.6133921192753, 26.3462548117863]}}, {"type": "Feature", "properties": {"state": "Assam", "name": "Cachar"}, "geometry": {"type": "Point", "coordinates": [92.85687142579704, 24.813978874164274]}}, {"type": "Feature", "properties": {"state": "Assam", "name": "Chirang"}, "geometry": {"type": "Point", "coordinates": [90.67857666934238, 26.627030390772305]}}, {"type": "Feature", "properties": {"state": "Assam", "name": "Darrang"}, "geometry": {"type": "Point", "coordinates": [92.03445024634478, 26.449449505383477]}}, {"type": "Feature", "properties": {"state": "Assam", "name": "Dhemaji"}, "geometry": {"type": "Point", "coordinates": [94.78033709483884, 27.59042338227057]}}, {"type": "Feature", "properties": {"state": "Assam", "name": "Dhubri"}, "geometry": {"type": "Point", "coordinates": [90.02789211509617, 26.101677487110482]}}, {"type": "Feature", "properties": {"state": "Assam", "name": "Dibrugarh"}, "geometry": {"type": "Point", "coordinates": [95.05489264391477, 27.371408552808795]}}, {"type": "Feature", "properties": {"state": "Assam", "name": "Dima Hasao"}, "geometry": {"type": "Point", "coordinates": [93.03397331577709, 25.38006559623978]}}, {"type": "Feature", "properties": {"state": "Assam", "name": "Goalpara"}, "geometry": {"type": "Point", "coordinates": [90.60868335251237, 26.047992021425948]}}, {"type": "Feature", "properties": {"state": "Assam", "name": "Golaghat"}, "geometry": {"type": "Point", "coordinates": [93.83675966251437, 26.478803374183208]}}, {"type": "Feature", "properties": {"state": "Assam", "name": "Hailakandi"}, "geometry": {"type": "Point", "coordinates": [92.58900910639126, 24.49650104240349]}}, {"type": "Feature", "properties": {"state": "Assam", "name": "Jorhat"}, "geometry": {"type": "Point", "coordinates": [94.27415420694152, 26.79526940689334]}}, {"type": "Feature", "properties": {"state": "Assam", "name": "Kamrup"}, "geometry": {"type": "Point", "coordinates": [91.42714629187299, 26.10364630799591]}}, {"type": "Feature", "properties": {"state": "Assam", "name": "Kamrup Metropolitan"}, "geometry": {"type": "Point", "coordinates": [91.930947318518, 26.13141913600434]}}, {"type": "Feature", "properties": {"state": "Assam", "name": "Karbi Anglong"}, "geometry": {"type": "Point", "coordinates": [93.14766105480375, 26.068381410696663]}}, {"type": "Feature", "properties": {"state": "Assam", "name": "Karimganj"}, "geometry": {"type": "Point", "coordinates": [92.37952889610703, 24.580375232103357]}}, {"type": "Feature", "properties": {"state": "Assam", "name": "Kokrajhar"}, "geometry": {"type": "Point", "coordinates": [90.19819817665434, 26.584353845829906]}}, {"type": "Feature", "properties": {"state": "Assam", "name": "Lakhimpur"}, "geometry": {"type": "Point", "coordinates": [94.13491778490786, 27.17424924431537]}}, {"type": "Feature", "properties": {"state": "Assam", "name": "Morigaon"}, "geometry": {"type": "Point", "coordinates": [92.28013510570608, 26.285759789083126]}}, {"type": "Feature", "properties": {"state": "Assam", "name": "Nagaon"}, "geometry": {"type": "Point", "coordinates": [92.84157818194082, 26.225533195128214]}}, {"type": "Feature", "properties": {"state": "Assam", "name": "Nalbari"}, "geometry": {"type": "Point", "coordinates": [91.38390753044108, 26.375477054728456]}}, {"type": "Feature", "properties": {"state": "Assam", "name": "Sivasagar"}, "geometry": {"type": "Point", "coordinates": [94.81913716659241, 27.012276640340254]}}, {"type": "Feature", "properties": {"state": "Assam", "name": "Sonitpur"}, "geometry": {"type": "Point", "coordinates": [92.92725048448676, 26.78256399382097]}}, {"type": "Feature", "properties": {"state": "Assam", "name": "Tinsukia"}, "geometry": {"type": "Point", "coordinates": [95.6255651234928, 27.584271426301775]}}, {"type": "Feature", "properties": {"state": "Assam", "name": "Udalguri"}, "geometry": {"type": "Point", "coordinates": [92.01969387267677, 26.73319848790789]}}, {"type": "Feature", "properties": {"state": "Bihar", "name": "Araria"}, "geometry": {"type": "Point", "coordinates": [87.34620501082865, 26.20078257617026]}}, {"type": "Feature", "properties": {"state": "Bihar", "name": "Arwal"}, "geometry": {"type": "Point", "coordinates": [84.68285295284109, 25.162727315026206]}}, {"type": "Feature", "properties": {"state": "Bihar", "name": "Aurangabad"}, "geometry": {"type": "Point", "coordinates": [84.40450356128572, 24.793603346189684]}}, {"type": "Feature", "properties": {"state": "Bihar", "name": "Banka"}, "geometry": {"type": "Point", "coordinates": [86.83421103085354, 24.851912264914382]}}, {"type": "Feature", "properties": {"state": "Bihar", "name": "Begusarai"}, "geometry": {"type": "Point", "coordinates": [86.12365262599442, 25.495581224135957]}}, {"type": "Feature", "properties": {"state": "Bihar", "name": "Bhagalpur"}, "geometry": {"type": "Point", "coordinates": [87.07721031214271, 25.269217477987677]}}, {"type": "Feature", "properties": {"state": "Bihar", "name": "Bhojpur"}, "geometry": {"type": "Point", "coordinates": [84.53551677358632, 25.47035735761565]}}, {"type": "Feature", "properties": {"state": "Bihar", "name": "Buxar"}, "geometry": {"type": "Point", "coordinates": [84.0933712937201, 25.4930912988947]}}, {"type": "Feature", "properties": {"state": "Bihar", "name": "Darbhanga"}, "geometry": {"type": "Point", "coordinates": [86.01740886111813, 26.11473007469719]}}, {"type": "Feature", "properties": {"state": "Bihar", "name": "Gaya"}, "geometry": {"type": "Point", "coordinates": [84.92844149024512, 24.69861919164733]}}, {"type": "Feature", "properties": {"state": "Bihar", "name": "Gopalganj"}, "geometry": {"type": "Point", "coordinates": [84.36816616487728, 26.44506529897592]}}, {"type": "Feature", "properties": {"state": "Bihar", "name": "Jamui"}, "geometry": {"type": "Point", "coordinates": [86.28854990779256, 24.785484887915196]}}, {"type": "Feature", "properties": {"state": "Bihar", "name": "Jehanabad"}, "geometry": {"type": "Point", "coordinates": [85.02169851289582, 25.156187780724114]}}, {"type": "Feature", "properties": {"state": "Bihar", "name": "Kaimur"}, "geometry": {"type": "Point", "coordinates": [83.59852213835764, 24.992694462428318]}}, {"type": "Feature", "properties": {"state": "Bihar", "name": "Katihar"}, "geometry": {"type": "Point", "coordinates": [87.63883765865796, 25.54509603612439]}}, {"type": "Feature", "properties": {"state": "Bihar", "name": "Khagaria"}, "geometry": {"type": "Point", "coordinates": [86.59619361360961, 25.51220092342226]}}, {"type": "Feature", "properties": {"state": "Bihar", "name": "Kishanganj"}, "geometry": {"type": "Point", "coordinates": [87.92913384838624, 26.295344786580753]}}, {"type": "Feature", "properties": {"state": "Bihar", "name": "Lakhisarai"}, "geometry": {"type": "Point", "coordinates": [86.12816196001054, 25.159802212099457]}}, {"type": "Feature", "properties": {"state": "Bihar", "name": "Madhepura"}, "geometry": {"type": "Point", "coordinates": [86.88934126646942, 25.82595171972504]}}, {"type": "Feature", "properties": {"state": "Bihar", "name": "Madhubani"}, "geometry": {"type": "Point", "coordinates": [86.21183694032989, 26.4062755915198]}}, {"type": "Feature", "properties": {"state": "Bihar", "name": "Munger"}, "geometry": {"type": "Point", "coordinates": [86.52695274815655, 25.210988255724747]}}, {"type": "Feature", "properties": {"state": "Bihar", "name": "Muzaffarpur"}, "geometry": {"type": "Point", "coordinates": [85.32245104477217, 26.15252935239414]}}, {"type": "Feature", "properties": {"state": "Bihar", "name": "Nalanda"}, "geometry": {"type": "Point", "coordinates": [85.44847213004383, 25.22131478187816]}}, {"type": "Feature", "properties": {"state": "Bihar", "name": "Nawada"}, "geometry": {"type": "Point", "coordinates": [85.58713155846503, 24.811060769914487]}}, {"type": "Feature", "properties": {"state": "Bihar", "name": "Pashchim Champaran"}, "geometry": {"type": "Point", "coordinates": [84.33674052697081, 27.079517347838834]}}, {"type": "Feature", "properties": {"state": "Bihar", "name": "Patna"}, "geometry": {"type": "Point", "coordinates": [85.2142902236931, 25.4572657846081]}}, {"type": "Feature", "properties": {"state": "Bihar", "name": "Purba Champaran"}, "geometry": {"type": "Point", "coordinates": [84.9163904980928, 26.62075070992775]}}, {"type": "Feature", "properties": {"state": "Bihar", "name": "Purnia"}, "geometry": {"type": "Point", "coordinates": [87.40056139957566, 25.816118013399286]}}, {"type": "Feature", "properties": {"state": "Bihar", "name": "Rohtas"}, "geometry": {"type": "Point", "coordinates": [84.01972774556126, 24.980615315834488]}}, {"type": "Feature", "properties": {"state": "Bihar", "name": "Saharsa"}, "geometry": {"type": "Point", "coordinates": [86.58258845080921, 25.816923081771453]}}, {"type": "Feature", "properties": {"state": "Bihar", "name": "Samastipur"}, "geometry": {"type": "Point", "coordinates": [85.89606218199839, 25.777629425352625]}}, {"type": "Feature", "properties": {"state": "Bihar", "name": "Saran"}, "geometry": {"type": "Point", "coordinates": [84.81704371353561, 25.906149857316386]}}, {"type": "Feature", "properties": {"state": "Bihar", "name": "Sheikhpura"}, "geometry": {"type": "Point", "coordinates": [85.81463380350932, 25.13159010782292]}}, {"type": "Feature", "properties": {"state": "Bihar", "name": "Sheohar"}, "geometry": {"type": "Point", "coordinates": [85.32267296151186, 26.48473940880923]}}, {"type": "Feature", "properties": {"state": "Bihar", "name": "Sitamarhi"}, "geometry": {"type": "Point", "coordinates": [85.55703354533463, 26.596679034446602]}}, {"type": "Feature", "properties": {"state": "Bihar", "name": "Siwan"}, "geometry": {"type": "Point", "coordinates": [84.38081084889437, 26.162822542192433]}}, {"type": "Feature", "properties": {"state": "Bihar", "name": "Supaul"}, "geometry": {"type": "Point", "coordinates": [86.79185565893506, 26.24668666760656]}}, {"type": "Feature", "properties": {"state": "Bihar", "name": "Vaishali"}, "geometry": {"type": "Point", "coordinates": [85.36201521573595, 25.76301548498215]}}, {"type": "Feature", "properties": {"state": "Chandigarh", "name": "Chandigarh"}, "geometry": {"type": "Point", "coordinates": [76.76820959389777, 30.73368780359397]}}, {"type": "Feature", "properties": {"state": "Chhattisgarh", "name": "Balod"}, "geometry": {"type": "Point", "coordinates": [81.15659324988792, 20.687368774273363]}}, {"type": "Feature", "properties": {"state": "Chhattisgarh", "name": "Baloda Bazar"}, "geometry": {"type": "Point", "coordinates": [82.32152936130825, 21.579039159593574]}}, {"type": "Feature", "properties": {"state": "Chhattisgarh", "name": "Balrampur"}, "geometry": {"type": "Point", "coordinates": [83.49436743978995, 23.5885650042921]}}, {"type": "Feature", "properties": {"state": "Chhattisgarh", "name": "Bastar"}, "geometry": {"type": "Point", "coordinates": [81.83369224776784, 19.0842646198913]}}, {"type": "Feature", "properties": {"state": "Chhattisgarh", "name": "Bemetara"}, "geometry": {"type": "Point", "coordinates": [81.5192638555304, 21.7072774907941]}}, {"type": "Feature", "properties": {"state": "Chhattisgarh", "name": "Bijapur"}, "geometry": {"type": "Point", "coordinates": [80.76851373473663, 18.83823978620618]}}, {"type": "Feature", "properties": {"state": "Chhattisgarh", "name": "Bilaspur"}, "geometry": {"type": "Point", "coordinates": [82.06944949509071, 22.405154557165595]}}, {"type": "Feature", "properties": {"state": "Chhattisgarh", "name": "Dantewada"}, "geometry": {"type": "Point", "coordinates": [81.37542966422308, 18.817864127159773]}}, {"type": "Feature", "properties": {"state": "Chhattisgarh", "name": "Dhamtari"}, "geometry": {"type": "Point", "coordinates": [81.8033241512552, 20.55318151613636]}}, {"type": "Feature", "properties": {"state": "Chhattisgarh", "name": "Durg"}, "geometry": {"type": "Point", "coordinates": [81.35496868223137, 21.151866980297065]}}, {"type": "Feature", "properties": {"state": "Chhattisgarh", "name": "Gariaband"}, "geometry": {"type": "Point", "coordinates": [82.26070691989827, 20.369649580769163]}}, {"type": "Feature", "properties": {"state": "Chhattisgarh", "name": "Janjgir- Champa"}, "geometry": {"type": "Point", "coordinates": [82.73066648314871, 21.92446878300379]}}, {"type": "Feature", "properties": {"state": "Chhattisgarh", "name": "Jashpur"}, "geometry": {"type": "Point", "coordinates": [83.85864268282315, 22.79871826643592]}}, {"type": "Feature", "properties": {"state": "Chhattisgarh", "name": "Kabeerdham"}, "geometry": {"type": "Point", "coordinates": [81.21610177334762, 22.091140300160045]}}, {"type": "Feature", "properties": {"state": "Chhattisgarh", "name": "Kondagaon"}, "geometry": {"type": "Point", "coordinates": [81.6571880942767, 19.740061543689563]}}, {"type": "Feature", "properties": {"state": "Chhattisgarh", "name": "Korba"}, "geometry": {"type": "Point", "coordinates": [82.60353506749439, 22.53244612034647]}}, {"type": "Feature", "properties": {"state": "Chhattisgarh", "name": "Koriya"}, "geometry": {"type": "Point", "coordinates": [82.22875093449562, 23.469270720915954]}}, {"type": "Feature", "properties": {"state": "Chhattisgarh", "name": "Mahasamund"}, "geometry": {"type": "Point", "coordinates": [82.60371233188732, 21.20318589402991]}}, {"type": "Feature", "properties": {"state": "Chhattisgarh", "name": "Mungeli"}, "geometry": {"type": "Point", "coordinates": [81.72534400582536, 22.239387235912414]}}, {"type": "Feature", "properties": {"state": "Chhattisgarh", "name": "Narayanpur"}, "geometry": {"type": "Point", "coordinates": [81.07091407793088, 19.571230442854386]}}, {"type": "Feature", "properties": {"state": "Chhattisgarh", "name": "Raigarh"}, "geometry": {"type": "Point", "coordinates": [83.29896773406666, 22.08290101922194]}}, {"type": "Feature", "properties": {"state": "Chhattisgarh", "name": "Raipur"}, "geometry": {"type": "Point", "coordinates": [81.8498480104011, 21.222800945606497]}}, {"type": "Feature", "properties": {"state": "Chhattisgarh", "name": "Rajnandgaon"}, "geometry": {"type": "Point", "coordinates": [80.81227209494402, 21.03842297331626]}}, {"type": "Feature", "properties": {"state": "Chhattisgarh", "name": "Sukma"}, "geometry": {"type": "Point", "coordinates": [81.34301324070364, 18.25314903378575]}}, {"type": "Feature", "properties": {"state": "Chhattisgarh", "name": "Surajpur"}, "geometry": {"type": "Point", "coordinates": [82.87602399878853, 23.40365194070017]}}, {"type": "Feature", "properties": {"state": "Chhattisgarh", "name": "Surguja"}, "geometry": {"type": "Point", "coordinates": [83.22034267356878, 22.9271464366965]}}, {"type": "Feature", "properties": {"state": "Chhattisgarh", "name": "Uttar Bastar Kanker"}, "geometry": {"type": "Point", "coordinates": [81.12118216631704, 20.13415431961296]}}, {"type": "Feature", "properties": {"state": "Dadraand Nagar Haveli", "name": "Dadraand Nagar Haveli"}, "geometry": {"type": "Point", "coordinates": [73.0808281699731, 20.194802168319374]}}, {"type": "Feature", "properties": {"state": "Damanand Diu", "name": "Daman"}, "geometry": {"type": "Point", "coordinates": [72.859433510668, 20.4138908500204]}}, {"type": "Feature", "properties": {"state": "Damanand Diu", "name": "Diu"}, "geometry": {"type": "Point", "coordinates": [70.94055132115813, 20.717142965330037]}}, {"type": "Feature", "properties": {"state": "Goa", "name": "North Goa"}, "geometry": {"type": "Point", "coordinates": [73.98402277000977, 15.550983038137769]}}, {"type": "Feature", "properties": {"state": "Goa", "name": "South Goa"}, "geometry": {"type": "Point", "coordinates": [74.120387045142, 15.195358290013358]}}, {"type": "Feature", "properties": {"state": "Gujarat", "name": "Ahmadabad"}, "geometry": {"type": "Point", "coordinates": [72.20334419362851, 22.727304545703074]}}, {"type": "Feature", "properties": {"state": "Gujarat", "name": "Amreli"}, "geometry": {"type": "Point", "coordinates": [71.26366509890661, 21.421105906644886]}}, {"type": "Feature", "properties": {"state": "Gujarat", "name": "Anand"}, "geometry": {"type": "Point", "coordinates": [72.79105199048531, 22.45021773416345]}}, {"type": "Feature", "properties": {"state": "Gujarat", "name": "Aravalli"}, "geometry": {"type": "Point", "coordinates": [73.33319414103283, 23.46916113093196]}}, {"type": "Feature", "properties": {"state": "Gujarat", "name": "Banas Kantha"}, "geometry": {"type": "Point", "coordinates": [72.03933829255593, 24.28105180263244]}}, {"type": "Feature", "properties": {"state": "Gujarat", "name": "Bharuch"}, "geometry": {"type": "Point", "coordinates": [72.92287458480608, 21.787210819917767]}}, {"type": "Feature", "properties": {"state": "Gujarat", "name": "Bhavnagar"}, "geometry": {"type": "Point", "coordinates": [71.92333228408803, 21.598293691153028]}}, {"type": "Feature", "properties": {"state": "Gujarat", "name": "Botad"}, "geometry": {"type": "Point", "coordinates": [71.61149762627126, 22.040935249533646]}}, {"type": "Feature", "properties": {"state": "Gujarat", "name": "Chhota Udaipur"}, "geometry": {"type": "Point", "coordinates": [73.86189317118387, 22.205052409353478]}}, {"type": "Feature", "properties": {"state": "Gujarat", "name": "Dahod"}, "geometry": {"type": "Point", "coordinates": [74.06683404880452, 22.797531735485048]}}, {"type": "Feature", "properties": {"state": "Gujarat", "name": "Devbhumi Dwarka"}, "geometry": {"type": "Point", "coordinates": [69.47262688091008, 22.12421728578567]}}, {"type": "Feature", "properties": {"state": "Gujarat", "name": "Gandhinagar"}, "geometry": {"type": "Point", "coordinates": [72.69962255234779, 23.208065054470616]}}, {"type": "Feature", "properties": {"state": "Gujarat", "name": "Gir Somnath"}, "geometry": {"type": "Point", "coordinates": [70.62183143170932, 20.92539169652194]}}, {"type": "Feature", "properties": {"state": "Gujarat", "name": "Jamnagar"}, "geometry": {"type": "Point", "coordinates": [70.23197564257775, 22.336459907760876]}}, {"type": "Feature", "properties": {"state": "Gujarat", "name": "Junagadh"}, "geometry": {"type": "Point", "coordinates": [70.571015422065, 21.255794967646835]}}, {"type": "Feature", "properties": {"state": "Gujarat", "name": "Kachchh"}, "geometry": {"type": "Point", "coordinates": [69.96719545538434, 23.62541190127695]}}, {"type": "Feature", "properties": {"state": "Gujarat", "name": "Kheda"}, "geometry": {"type": "Point", "coordinates": [73.0234713938448, 22.87645545765008]}}, {"type": "Feature", "properties": {"state": "Gujarat", "name": "Mahesana"}, "geometry": {"type": "Point", "coordinates": [72.49630254106391, 23.579624536500493]}}, {"type": "Feature", "properties": {"state": "Gujarat", "name": "Mahisagar"}, "geometry": {"type": "Point", "coordinates": [73.7686776744171, 23.207261116213633]}}, {"type": "Feature", "properties": {"state": "Gujarat", "name": "Morbi"}, "geometry": {"type": "Point", "coordinates": [70.93665467845923, 22.824461514816214]}}, {"type": "Feature", "properties": {"state": "Gujarat", "name": "Narmada"}, "geometry": {"type": "Point", "coordinates": [73.65743865507254, 21.711541818766555]}}, {"type": "Feature", "properties": {"state": "Gujarat", "name": "Navsari"}, "geometry": {"type": "Point", "coordinates": [73.10328072482784, 20.812529572151888]}}, {"type": "Feature", "properties": {"state": "Gujarat", "name": "Panch Mahals"}, "geometry": {"type": "Point", "coordinates": [73.61154532098766, 22.734367067674995]}}, {"type": "Feature", "properties": {"state": "Gujarat", "name": "Patan"}, "geometry": {"type": "Point", "coordinates": [71.80012118248177, 23.767923945952283]}}, {"type": "Feature", "properties": {"state": "Gujarat", "name": "Porbandar"}, "geometry": {"type": "Point", "coordinates": [69.80210844296589, 21.637688257427882]}}, {"type": "Feature", "properties": {"state": "Gujarat", "name": "Rajkot"}, "geometry": {"type": "Point", "coordinates": [70.76069427694104, 22.015066288107615]}}, {"type": "Feature", "properties": {"state": "Gujarat", "name": "Sabar Kantha"}, "geometry": {"type": "Point", "coordinates": [73.0374563380125, 23.804689672373183]}}, {"type": "Feature", "properties": {"state": "Gujarat", "name": "Surat"}, "geometry": {"type": "Point", "coordinates": [73.07408447519664, 21.264113198629907]}}, {"type": "Feature", "properties": {"state": "Gujarat", "name": "Surendranagar"}, "geometry": {"type": "Point", "coordinates": [71.60655567375689, 22.767886198804536]}}, {"type": "Feature", "properties": {"state": "Gujarat", "name": "Tapi"}, "geometry": {"type": "Point", "coordinates": [73.63815015748122, 21.192365530976957]}}, {"type": "Feature", "properties": {"state": "Gujarat", "name": "The Dangs"}, "geometry": {"type": "Point", "coordinates": [73.70615134880849, 20.798556707941895]}}, {"type": "Feature", "properties": {"state": "Gujarat", "name": "Vadodara"}, "geometry": {"type": "Point", "coordinates": [73.24964833211872, 22.245874274048415]}}, {"type": "Feature", "properties": {"state": "Gujarat", "name": "Valsad"}, "geometry": {"type": "Point", "coordinates": [73.12213034038841, 20.418253361078385]}}, {"type": "Feature", "properties": {"state": "Haryana", "name": "Ambala"}, "geometry": {"type": "Point", "coordinates": [76.96593649580474, 30.3585717053259]}}, {"type": "Feature", "properties": {"state": "Haryana", "name": "Bhiwani"}, "geometry": {"type": "Point", "coordinates": [75.9575750585972, 28.724041602232194]}}, {"type": "Feature", "properties": {"state": "Haryana", "name": "Faridabad"}, "geometry": {"type": "Point", "coordinates": [77.29627934270633, 28.235099888380283]}}, {"type": "Feature", "properties": {"state": "Haryana", "name": "Fatehabad"}, "geometry": {"type": "Point", "coordinates": [75.5690983337191, 29.579315685257942]}}, {"type": "Feature", "properties": {"state": "Haryana", "name": "Gurgaon"}, "geometry": {"type": "Point", "coordinates": [76.92187474287103, 28.3747618121626]}}, {"type": "Feature", "properties": {"state": "Haryana", "name": "Hisar"}, "geometry": {"type": "Point", "coordinates": [75.80478329737144, 29.220373550381552]}}, {"type": "Feature", "properties": {"state": "Haryana", "name": "Jhajjar"}, "geometry": {"type": "Point", "coordinates": [76.61642291412008, 28.592361271055168]}}, {"type": "Feature", "properties": {"state": "Haryana", "name": "Jind"}, "geometry": {"type": "Point", "coordinates": [76.29407054298714, 29.442378099235043]}}, {"type": "Feature", "properties": {"state": "Haryana", "name": "Kaithal"}, "geometry": {"type": "Point", "coordinates": [76.40780136241901, 29.81601533363576]}}, {"type": "Feature", "properties": {"state": "Haryana", "name": "Karnal"}, "geometry": {"type": "Point", "coordinates": [76.88093105927818, 29.696977254029363]}}, {"type": "Feature", "properties": {"state": "Haryana", "name": "Kurukshetra"}, "geometry": {"type": "Point", "coordinates": [76.82974708603417, 30.049914145139923]}}, {"type": "Feature", "properties": {"state": "Haryana", "name": "Mahendragarh"}, "geometry": {"type": "Point", "coordinates": [76.13631813698808, 28.178185544453317]}}, {"type": "Feature", "properties": {"state": "Haryana", "name": "Mewat"}, "geometry": {"type": "Point", "coordinates": [77.03766204649969, 27.987093370183846]}}, {"type": "Feature", "properties": {"state": "Haryana", "name": "Palwal"}, "geometry": {"type": "Point", "coordinates": [77.3605205108122, 28.065086012781077]}}, {"type": "Feature", "properties": {"state": "Haryana", "name": "Panchkula"}, "geometry": {"type": "Point", "coordinates": [76.95863488092607, 30.710081332764197]}}, {"type": "Feature", "properties": {"state": "Haryana", "name": "Panipat"}, "geometry": {"type": "Point", "coordinates": [76.91546190671171, 29.337419693829936]}}, {"type": "Feature", "properties": {"state": "Haryana", "name": "Rewari"}, "geometry": {"type": "Point", "coordinates": [76.55523286755582, 28.210393835803416]}}, {"type": "Feature", "properties": {"state": "Haryana", "name": "Rohtak"}, "geometry": {"type": "Point", "coordinates": [76.51106164738879, 28.91416164428858]}}, {"type": "Feature", "properties": {"state": "Haryana", "name": "Sirsa"}, "geometry": {"type": "Point", "coordinates": [74.8920925247435, 29.61629188289021]}}, {"type": "Feature", "properties": {"state": "Haryana", "name": "Sonipat"}, "geometry": {"type": "Point", "coordinates": [76.86415706076245, 29.06544688596551]}}, {"type": "Feature", "properties": {"state": "Haryana", "name": "Yamunanagar"}, "geometry": {"type": "Point", "coordinates": [77.33025722147833, 30.257575441328466]}}, {"type": "Feature", "properties": {"state": "Himachal Pradesh", "name": "Bilaspur"}, "geometry": {"type": "Point", "coordinates": [76.657469528233, 31.37532532056279]}}, {"type": "Feature", "properties": {"state": "Himachal Pradesh", "name": "Chamba"}, "geometry": {"type": "Point", "coordinates": [76.33759845052843, 32.67833542212402]}}, {"type": "Feature", "properties": {"state": "Himachal Pradesh", "name": "Hamirpur"}, "geometry": {"type": "Point", "coordinates": [76.51102574539131, 31.67051307226754]}}, {"type": "Feature", "properties": {"state": "Himachal Pradesh", "name": "Kangra"}, "geometry": {"type": "Point", "coordinates": [76.30233948622025, 32.110341611020225]}}, {"type": "Feature", "properties": {"state": "Himachal Pradesh", "name": "Kinnaur"}, "geometry": {"type": "Point", "coordinates": [78.38424831179928, 31.59843354310991]}}, {"type": "Feature", "properties": {"state": "Himachal Pradesh", "name": "Kinnaur"}, "geometry": {"type": "Point", "coordinates": [78.69538499977112, 32.004026658212354]}}, {"type": "Feature", "properties": {"state": "Himachal Pradesh", "name": "Kinnaur"}, "geometry": {"type": "Point", "coordinates": [78.79732413730179, 31.354919095274067]}}, {"type": "Feature", "properties": {"state": "Himachal Pradesh", "name": "Kullu"}, "geometry": {"type": "Point", "coordinates": [77.3844650257603, 31.907814396477125]}}, {"type": "Feature", "properties": {"state": "Himachal Pradesh", "name": "Lahul& Spiti"}, "geometry": {"type": "Point", "coordinates": [77.58582387990654, 32.48781821620336]}}, {"type": "Feature", "properties": {"state": "Himachal Pradesh", "name": "Lahul& Spiti"}, "geometry": {"type": "Point", "coordinates": [78.54047026937681, 32.17067054712515]}}, {"type": "Feature", "properties": {"state": "Himachal Pradesh", "name": "Mandi"}, "geometry": {"type": "Point", "coordinates": [76.97789574313661, 31.641428210704667]}}, {"type": "Feature", "properties": {"state": "Himachal Pradesh", "name": "Shimla"}, "geometry": {"type": "Point", "coordinates": [77.6177495670655, 31.201293623925796]}}, {"type": "Feature", "properties": {"state": "Himachal Pradesh", "name": "Sirmaur"}, "geometry": {"type": "Point", "coordinates": [77.41738742724986, 30.67209093303792]}}, {"type": "Feature", "properties": {"state": "Himachal Pradesh", "name": "Solan"}, "geometry": {"type": "Point", "coordinates": [76.89569072422728, 31.04660743128542]}}, {"type": "Feature", "properties": {"state": "Himachal Pradesh", "name": "Una"}, "geometry": {"type": "Point", "coordinates": [76.19575519622374, 31.582736172049508]}}, {"type": "Feature", "properties": {"state": "Jammuand Kashmir", "name": "Anantnag"}, "geometry": {"type": "Point", "coordinates": [75.31950658378709, 33.821545183729015]}}, {"type": "Feature", "properties": {"state": "Jammuand Kashmir", "name": "Badgam"}, "geometry": {"type": "Point", "coordinates": [74.62580939990578, 33.913276588159604]}}, {"type": "Feature", "properties": {"state": "Jammuand Kashmir", "name": "Bandipore"}, "geometry": {"type": "Point", "coordinates": [74.90883585963029, 34.51754097865332]}}, {"type": "Feature", "properties": {"state": "Jammuand Kashmir", "name": "Baramulla"}, "geometry": {"type": "Point", "coordinates": [74.33731808812104, 34.180586499087454]}}, {"type": "Feature", "properties": {"state": "Jammuand Kashmir", "name": "Doda"}, "geometry": {"type": "Point", "coordinates": [75.68738623214864, 33.11079779940306]}}, {"type": "Feature", "properties": {"state": "Jammuand Kashmir", "name": "Ganderbal"}, "geometry": {"type": "Point", "coordinates": [75.0297165216363, 34.28779878187697]}}, {"type": "Feature", "properties": {"state": "Jammuand Kashmir", "name": "Jammu"}, "geometry": {"type": "Point", "coordinates": [74.73184623429718, 32.799167682270124]}}, {"type": "Feature", "properties": {"state": "Jammuand Kashmir", "name": "Kargil"}, "geometry": {"type": "Point", "coordinates": [76.47303888887623, 33.88329970385526]}}, {"type": "Feature", "properties": {"state": "Jammuand Kashmir", "name": "Kathua"}, "geometry": {"type": "Point", "coordinates": [75.55650713306382, 32.57299170390295]}}, {"type": "Feature", "properties": {"state": "Jammuand Kashmir", "name": "Kishtwar"}, "geometry": {"type": "Point", "coordinates": [75.95037061013225, 33.54613660036014]}}, {"type": "Feature", "properties": {"state": "Jammuand Kashmir", "name": "Kulgam"}, "geometry": {"type": "Point", "coordinates": [74.85140288962994, 33.598940237309]}}, {"type": "Feature", "properties": {"state": "Jammuand Kashmir", "name": "Kupwara"}, "geometry": {"type": "Point", "coordinates": [74.19263498447549, 34.52675562326568]}}, {"type": "Feature", "properties": {"state": "Jammuand Kashmir", "name": "Leh( Ladakh)"}, "geometry": {"type": "Point", "coordinates": [77.90682316421253, 33.915261101337485]}}, {"type": "Feature", "properties": {"state": "Jammuand Kashmir", "name": "Poonch"}, "geometry": {"type": "Point", "coordinates": [74.26044386956838, 33.70822112089757]}}, {"type": "Feature", "properties": {"state": "Jammuand Kashmir", "name": "Pulwama"}, "geometry": {"type": "Point", "coordinates": [75.04307810950387, 33.96731422732407]}}, {"type": "Feature", "properties": {"state": "Jammuand Kashmir", "name": "Rajouri"}, "geometry": {"type": "Point", "coordinates": [74.37931842311131, 33.27983942442071]}}, {"type": "Feature", "properties": {"state": "Jammuand Kashmir", "name": "Ramban"}, "geometry": {"type": "Point", "coordinates": [75.17176832668892, 33.33387352817716]}}, {"type": "Feature", "properties": {"state": "Jammuand Kashmir", "name": "Reasi"}, "geometry": {"type": "Point", "coordinates": [74.82189653362205, 33.22221531640531]}}, {"type": "Feature", "properties": {"state": "Jammuand Kashmir", "name": "Samba"}, "geometry": {"type": "Point", "coordinates": [75.05090483856931, 32.604071367941124]}}, {"type": "Feature", "properties": {"state": "Jammuand Kashmir", "name": "Shupiyan"}, "geometry": {"type": "Point", "coordinates": [74.83026492591362, 33.76345896390385]}}, {"type": "Feature", "properties": {"state": "Jammuand Kashmir", "name": "Srinagar"}, "geometry": {"type": "Point", "coordinates": [74.89833361359415, 34.129342850886495]}}, {"type": "Feature", "properties": {"state": "Jammuand Kashmir", "name": "Udhampur"}, "geometry": {"type": "Point", "coordinates": [75.27847783791341, 32.908113066914645]}}, {"type": "Feature", "properties": {"state": "Jharkhand", "name": "Bokaro"}, "geometry": {"type": "Point", "coordinates": [85.98757249361098, 23.691669687736137]}}, {"type": "Feature", "properties": {"state": "Jharkhand", "name": "Chatra"}, "geometry": {"type": "Point", "coordinates": [84.88017500696684, 24.17302835185782]}}, {"type": "Feature", "properties": {"state": "Jharkhand", "name": "Deoghar"}, "geometry": {"type": "Point", "coordinates": [86.73524934581785, 24.326786695250316]}}, {"type": "Feature", "properties": {"state": "Jharkhand", "name": "Dhanbad"}, "geometry": {"type": "Point", "coordinates": [86.47080542873454, 23.830375340868905]}}, {"type": "Feature", "properties": {"state": "Jharkhand", "name": "Dumka"}, "geometry": {"type": "Point", "coordinates": [87.2612032879121, 24.318376003988757]}}, {"type": "Feature", "properties": {"state": "Jharkhand", "name": "Garhwa"}, "geometry": {"type": "Point", "coordinates": [83.68968767606489, 24.103422840345946]}}, {"type": "Feature", "properties": {"state": "Jharkhand", "name": "Giridih"}, "geometry": {"type": "Point", "coordinates": [86.10392279804566, 24.296909755690344]}}, {"type": "Feature", "properties": {"state": "Jharkhand", "name": "Godda"}, "geometry": {"type": "Point", "coordinates": [87.30626523614038, 24.8587603819616]}}, {"type": "Feature", "properties": {"state": "Jharkhand", "name": "Gumla"}, "geometry": {"type": "Point", "coordinates": [84.52784651680842, 23.100742517146752]}}, {"type": "Feature", "properties": {"state": "Jharkhand", "name": "Hazaribagh"}, "geometry": {"type": "Point", "coordinates": [85.42095449831059, 24.077442075948174]}}, {"type": "Feature", "properties": {"state": "Jharkhand", "name": "Jamtara"}, "geometry": {"type": "Point", "coordinates": [86.91161050572232, 23.975315252068977]}}, {"type": "Feature", "properties": {"state": "Jharkhand", "name": "Khunti"}, "geometry": {"type": "Point", "coordinates": [85.26773594321497, 23.000032101108385]}}, {"type": "Feature", "properties": {"state": "Jharkhand", "name": "Kodarma"}, "geometry": {"type": "Point", "coordinates": [85.70242338803659, 24.518393866543708]}}, {"type": "Feature", "properties": {"state": "Jharkhand", "name": "Latehar"}, "geometry": {"type": "Point", "coordinates": [84.4359968289535, 23.717180551641373]}}, {"type": "Feature", "properties": {"state": "Jharkhand", "name": "Lohardaga"}, "geometry": {"type": "Point", "coordinates": [84.66302871789644, 23.4746713732321]}}, {"type": "Feature", "properties": {"state": "Jharkhand", "name": "Pakur"}, "geometry": {"type": "Point", "coordinates": [87.65834651035132, 24.562012481736765]}}, {"type": "Feature", "properties": {"state": "Jharkhand", "name": "Palamu"}, "geometry": {"type": "Point", "coordinates": [84.15857386420208, 24.200187417839036]}}, {"type": "Feature", "properties": {"state": "Jharkhand", "name": "Pashchimi Singhbhum"}, "geometry": {"type": "Point", "coordinates": [85.51351219571742, 22.416499293069077]}}, {"type": "Feature", "properties": {"state": "Jharkhand", "name": "Purbi Singhbhum"}, "geometry": {"type": "Point", "coordinates": [86.4472315761055, 22.57911748664536]}}, {"type": "Feature", "properties": {"state": "Jharkhand", "name": "Ramgarh"}, "geometry": {"type": "Point", "coordinates": [85.55399332144287, 23.62743997018159]}}, {"type": "Feature", "properties": {"state": "Jharkhand", "name": "Ranchi"}, "geometry": {"type": "Point", "coordinates": [85.36569428503233, 23.331090899746133]}}, {"type": "Feature", "properties": {"state": "Jharkhand", "name": "Sahibganj"}, "geometry": {"type": "Point", "coordinates": [87.67436937103908, 25.00706519125707]}}, {"type": "Feature", "properties": {"state": "Jharkhand", "name": "Saraikela-kharsawan"}, "geometry": {"type": "Point", "coordinates": [85.94564325551124, 22.842161003859097]}}, {"type": "Feature", "properties": {"state": "Jharkhand", "name": "Simdega"}, "geometry": {"type": "Point", "coordinates": [84.55968985346932, 22.57769945503521]}}, {"type": "Feature", "properties": {"state": "Karnataka", "name": "Bagalkot"}, "geometry": {"type": "Point", "coordinates": [75.62656593760103, 16.218022803274586]}}, {"type": "Feature", "properties": {"state": "Karnataka", "name": "Bangalore"}, "geometry": {"type": "Point", "coordinates": [77.58683649578978, 12.942265479952843]}}, {"type": "Feature", "properties": {"state": "Karnataka", "name": "Bangalore Rural"}, "geometry": {"type": "Point", "coordinates": [77.56624935208751, 13.217806368189997]}}, {"type": "Feature", "properties": {"state": "Karnataka", "name": "Belgaum"}, "geometry": {"type": "Point", "coordinates": [74.82793703301718, 16.11779014699704]}}, {"type": "Feature", "properties": {"state": "Karnataka", "name": "Bellary"}, "geometry": {"type": "Point", "coordinates": [76.5305399182799, 15.105024596979984]}}, {"type": "Feature", "properties": {"state": "Karnataka", "name": "Bidar"}, "geometry": {"type": "Point", "coordinates": [77.22350061490133, 17.950215969405974]}}, {"type": "Feature", "properties": {"state": "Karnataka", "name": "Bijapur"}, "geometry": {"type": "Point", "coordinates": [75.95340785377866, 16.791533313059453]}}, {"type": "Feature", "properties": {"state": "Karnataka", "name": "Chamrajnagar"}, "geometry": {"type": "Point", "coordinates": [77.09031034290115, 11.948704102148243]}}, {"type": "Feature", "properties": {"state": "Karnataka", "name": "Chikballapura"}, "geometry": {"type": "Point", "coordinates": [77.82825001058346, 13.56880962788438]}}, {"type": "Feature", "properties": {"state": "Karnataka", "name": "Chikmagalur"}, "geometry": {"type": "Point", "coordinates": [75.68954248433086, 13.449416388656596]}}, {"type": "Feature", "properties": {"state": "Karnataka", "name": "Chitradurga"}, "geometry": {"type": "Point", "coordinates": [76.51244674511278, 14.161948594277792]}}, {"type": "Feature", "properties": {"state": "Karnataka", "name": "Dakshina Kannada"}, "geometry": {"type": "Point", "coordinates": [75.26665156347192, 12.833011154133633]}}, {"type": "Feature", "properties": {"state": "Karnataka", "name": "Davanagere"}, "geometry": {"type": "Point", "coordinates": [75.93134693800376, 14.351545340839975]}}, {"type": "Feature", "properties": {"state": "Karnataka", "name": "Dharwad"}, "geometry": {"type": "Point", "coordinates": [75.15619756726849, 15.386452316360291]}}, {"type": "Feature", "properties": {"state": "Karnataka", "name": "Gadag"}, "geometry": {"type": "Point", "coordinates": [75.66667939025322, 15.42787224828246]}}, {"type": "Feature", "properties": {"state": "Karnataka", "name": "Gulbarga"}, "geometry": {"type": "Point", "coordinates": [76.86715845398014, 17.257112178716522]}}, {"type": "Feature", "properties": {"state": "Karnataka", "name": "Hassan"}, "geometry": {"type": "Point", "coordinates": [76.104902681629, 12.989622405409971]}}, {"type": "Feature", "properties": {"state": "Karnataka", "name": "Haveri"}, "geometry": {"type": "Point", "coordinates": [75.4185679289542, 14.734421674033868]}}, {"type": "Feature", "properties": {"state": "Karnataka", "name": "Kodagu"}, "geometry": {"type": "Point", "coordinates": [75.79914805367281, 12.318721975985497]}}, {"type": "Feature", "properties": {"state": "Karnataka", "name": "Kolar"}, "geometry": {"type": "Point", "coordinates": [78.20853092610557, 13.128717751170768]}}, {"type": "Feature", "properties": {"state": "Karnataka", "name": "Koppal"}, "geometry": {"type": "Point", "coordinates": [76.22041385989571, 15.557978425900716]}}, {"type": "Feature", "properties": {"state": "Karnataka", "name": "Mandya"}, "geometry": {"type": "Point", "coordinates": [76.79054174526932, 12.603598287091161]}}, {"type": "Feature", "properties": {"state": "Karnataka", "name": "Mysore"}, "geometry": {"type": "Point", "coordinates": [76.4360470815598, 12.202183158079036]}}, {"type": "Feature", "properties": {"state": "Karnataka", "name": "Raichur"}, "geometry": {"type": "Point", "coordinates": [76.89011714019047, 16.08552112598515]}}, {"type": "Feature", "properties": {"state": "Karnataka", "name": "Ramanagara"}, "geometry": {"type": "Point", "coordinates": [77.32772145065904, 12.670034259707174]}}, {"type": "Feature", "properties": {"state": "Karnataka", "name": "Shimoga"}, "geometry": {"type": "Point", "coordinates": [75.17607955558154, 14.052218747999126]}}, {"type": "Feature", "properties": {"state": "Karnataka", "name": "Tumkur"}, "geometry": {"type": "Point", "coordinates": [76.94147577950949, 13.513518974752174]}}, {"type": "Feature", "properties": {"state": "Karnataka", "name": "Udupi"}, "geometry": {"type": "Point", "coordinates": [74.88269082534227, 13.464788420676683]}}, {"type": "Feature", "properties": {"state": "Karnataka", "name": "Uttara Kannada"}, "geometry": {"type": "Point", "coordinates": [74.62397921477886, 14.787528928817583]}}, {"type": "Feature", "properties": {"state": "Karnataka", "name": "Yadgir"}, "geometry": {"type": "Point", "coordinates": [76.91120478586286, 16.622758124850208]}}, {"type": "Feature", "properties": {"state": "Kerala", "name": "Alappuzha"}, "geometry": {"type": "Point", "coordinates": [76.44596632498462, 9.413315396819863]}}, {"type": "Feature", "properties": {"state": "Kerala", "name": "Ernakulam"}, "geometry": {"type": "Point", "coordinates": [76.4742739255772, 10.055311921023984]}}, {"type": "Feature", "properties": {"state": "Kerala", "name": "Idukki"}, "geometry": {"type": "Point", "coordinates": [77.01326049717268, 9.873820946063747]}}, {"type": "Feature", "properties": {"state": "Kerala", "name": "Kannur"}, "geometry": {"type": "Point", "coordinates": [75.53615490966926, 11.992319588738482]}}, {"type": "Feature", "properties": {"state": "Kerala", "name": "Kasaragod"}, "geometry": {"type": "Point", "coordinates": [75.15246069436729, 12.459301426052114]}}, {"type": "Feature", "properties": {"state": "Kerala", "name": "Kollam"}, "geometry": {"type": "Point", "coordinates": [76.86774650181952, 8.954076839880543]}}, {"type": "Feature", "properties": {"state": "Kerala", "name": "Kottayam"}, "geometry": {"type": "Point", "coordinates": [76.64872647094741, 9.628300316004644]}}, {"type": "Feature", "properties": {"state": "Kerala", "name": "Kozhikode"}, "geometry": {"type": "Point", "coordinates": [75.83149708915795, 11.480744539677968]}}, {"type": "Feature", "properties": {"state": "Kerala", "name": "Malappuram"}, "geometry": {"type": "Point", "coordinates": [76.15161566962693, 11.129315222895524]}}, {"type": "Feature", "properties": {"state": "Kerala", "name": "Palakkad"}, "geometry": {"type": "Point", "coordinates": [76.54824179781139, 10.787184042431441]}}, {"type": "Feature", "properties": {"state": "Kerala", "name": "Pathanamthitta"}, "geometry": {"type": "Point", "coordinates": [76.91336070347056, 9.276106533329747]}}, {"type": "Feature", "properties": {"state": "Kerala", "name": "Thiruvananthapuram"}, "geometry": {"type": "Point", "coordinates": [77.0046591393305, 8.606279169601438]}}, {"type": "Feature", "properties": {"state": "Kerala", "name": "Thrissur"}, "geometry": {"type": "Point", "coordinates": [76.31193700007726, 10.465563595047076]}}, {"type": "Feature", "properties": {"state": "Kerala", "name": "Wayanad"}, "geometry": {"type": "Point", "coordinates": [76.09166364214114, 11.704757630322076]}}, {"type": "Feature", "properties": {"state": "Lakshadweep", "name": "Lakshadweep"}, "geometry": {"type": "Point", "coordinates": [72.93381223860881, 10.467416146518948]}}, {"type": "Feature", "properties": {"state": "Madhya Pradesh", "name": "Agar Malwa"}, "geometry": {"type": "Point", "coordinates": [76.07025835339876, 23.83396439378838]}}, {"type": "Feature", "properties": {"state": "Madhya Pradesh", "name": "Alirajpur"}, "geometry": {"type": "Point", "coordinates": [74.36767818510955, 22.315695481849403]}}, {"type": "Feature", "properties": {"state": "Madhya Pradesh", "name": "Anuppur"}, "geometry": {"type": "Point", "coordinates": [81.8721160341928, 23.148385797900062]}}, {"type": "Feature", "properties": {"state": "Madhya Pradesh", "name": "Ashoknagar"}, "geometry": {"type": "Point", "coordinates": [77.86945698845344, 24.61416079469193]}}, {"type": "Feature", "properties": {"state": "Madhya Pradesh", "name": "Balaghat"}, "geometry": {"type": "Point", "coordinates": [80.35390498147132, 21.88125291447146]}}, {"type": "Feature", "properties": {"state": "Madhya Pradesh", "name": "Barwani"}, "geometry": {"type": "Point", "coordinates": [75.02328156292234, 21.78965606004653]}}, {"type": "Feature", "properties": {"state": "Madhya Pradesh", "name": "Betul"}, "geometry": {"type": "Point", "coordinates": [77.8669940413034, 21.879738638747114]}}, {"type": "Feature", "properties": {"state": "Madhya Pradesh", "name": "Bhind"}, "geometry": {"type": "Point", "coordinates": [78.71489702392626, 26.426448049461076]}}, {"type": "Feature", "properties": {"state": "Madhya Pradesh", "name": "Bhopal"}, "geometry": {"type": "Point", "coordinates": [77.39179156500134, 23.48196388471286]}}, {"type": "Feature", "properties": {"state": "Madhya Pradesh", "name": "Burhanpur"}, "geometry": {"type": "Point", "coordinates": [76.36907049039107, 21.37434535902797]}}, {"type": "Feature", "properties": {"state": "Madhya Pradesh", "name": "Chhatarpur"}, "geometry": {"type": "Point", "coordinates": [79.65755590596, 24.802215562206996]}}, {"type": "Feature", "properties": {"state": "Madhya Pradesh", "name": "Chhindwara"}, "geometry": {"type": "Point", "coordinates": [78.85003227515828, 22.123465597709508]}}, {"type": "Feature", "properties": {"state": "Madhya Pradesh", "name": "Damoh"}, "geometry": {"type": "Point", "coordinates": [79.52050846618559, 23.816225898499177]}}, {"type": "Feature", "properties": {"state": "Madhya Pradesh", "name": "Datia"}, "geometry": {"type": "Point", "coordinates": [78.606819867651, 25.84525652111774]}}, {"type": "Feature", "properties": {"state": "Madhya Pradesh", "name": "Dewas"}, "geometry": {"type": "Point", "coordinates": [76.4542410697049, 22.748457701374868]}}, {"type": "Feature", "properties": {"state": "Madhya Pradesh", "name": "Dhar"}, "geometry": {"type": "Point", "coordinates": [75.10524334219102, 22.500170269012607]}}, {"type": "Feature", "properties": {"state": "Madhya Pradesh", "name": "Dindori"}, "geometry": {"type": "Point", "coordinates": [81.04562203409469, 22.835188858076208]}}, {"type": "Feature", "properties": {"state": "Madhya Pradesh", "name": "East Nimar"}, "geometry": {"type": "Point", "coordinates": [76.570019203871, 21.93877780701335]}}, {"type": "Feature", "properties": {"state": "Madhya Pradesh", "name": "Guna"}, "geometry": {"type": "Point", "coordinates": [77.19596581558784, 24.55932171311586]}}, {"type": "Feature", "properties": {"state": "Madhya Pradesh", "name": "Gwalior"}, "geometry": {"type": "Point", "coordinates": [78.13878208526036, 26.045077685339766]}}, {"type": "Feature", "properties": {"state": "Madhya Pradesh", "name": "Harda"}, "geometry": {"type": "Point", "coordinates": [77.11800293906815, 22.237183600824995]}}, {"type": "Feature", "properties": {"state": "Madhya Pradesh", "name": "Hoshangabad"}, "geometry": {"type": "Point", "coordinates": [77.98437505033132, 22.591322841101903]}}, {"type": "Feature", "properties": {"state": "Madhya Pradesh", "name": "Indore"}, "geometry": {"type": "Point", "coordinates": [75.7814664483765, 22.71627825307723]}}, {"type": "Feature", "properties": {"state": "Madhya Pradesh", "name": "Jabalpur"}, "geometry": {"type": "Point", "coordinates": [79.94496941741131, 23.17427702328895]}}, {"type": "Feature", "properties": {"state": "Madhya Pradesh", "name": "Jhabua"}, "geometry": {"type": "Point", "coordinates": [74.67399895155258, 22.893396665163966]}}, {"type": "Feature", "properties": {"state": "Madhya Pradesh", "name": "Katni"}, "geometry": {"type": "Point", "coordinates": [80.33473229441805, 23.70368307938968]}}, {"type": "Feature", "properties": {"state": "Madhya Pradesh", "name": "Mandla"}, "geometry": {"type": "Point", "coordinates": [80.44729824919733, 22.66598406557048]}}, {"type": "Feature", "properties": {"state": "Madhya Pradesh", "name": "Mandsaur"}, "geometry": {"type": "Point", "coordinates": [75.40407253571858, 24.214997412037757]}}, {"type": "Feature", "properties": {"state": "Madhya Pradesh", "name": "Morena"}, "geometry": {"type": "Point", "coordinates": [77.86095471567505, 26.419204978652072]}}, {"type": "Feature", "properties": {"state": "Madhya Pradesh", "name": "Narsimhapur"}, "geometry": {"type": "Point", "coordinates": [79.08127288487447, 22.937404197749085]}}, {"type": "Feature", "properties": {"state": "Madhya Pradesh", "name": "Neemuch"}, "geometry": {"type": "Point", "coordinates": [75.14323260695524, 24.60925802345022]}}, {"type": "Feature", "properties": {"state": "Madhya Pradesh", "name": "Panna"}, "geometry": {"type": "Point", "coordinates": [80.18540062586221, 24.42511426696413]}}, {"type": "Feature", "properties": {"state": "Madhya Pradesh", "name": "Raisen"}, "geometry": {"type": "Point", "coordinates": [78.11335173256808, 23.220639430884507]}}, {"type": "Feature", "properties": {"state": "Madhya Pradesh", "name": "Rajgarh"}, "geometry": {"type": "Point", "coordinates": [76.73114427462968, 23.86532732710658]}}, {"type": "Feature", "properties": {"state": "Madhya Pradesh", "name": "Ratlam"}, "geometry": {"type": "Point", "coordinates": [75.09013766139317, 23.50416974187749]}}, {"type": "Feature", "properties": {"state": "Madhya Pradesh", "name": "Rewa"}, "geometry": {"type": "Point", "coordinates": [81.58152477503621, 24.75818755032312]}}, {"type": "Feature", "properties": {"state": "Madhya Pradesh", "name": "Sagar"}, "geometry": {"type": "Point", "coordinates": [78.75278462893772, 23.851945150391426]}}, {"type": "Feature", "properties": {"state": "Madhya Pradesh", "name": "Satna"}, "geometry": {"type": "Point", "coordinates": [80.82546802873087, 24.536053856152694]}}, {"type": "Feature", "properties": {"state": "Madhya Pradesh", "name": "Sehore"}, "geometry": {"type": "Point", "coordinates": [77.12503316354622, 22.99475105126157]}}, {"type": "Feature", "properties": {"state": "Madhya Pradesh", "name": "Seoni"}, "geometry": {"type": "Point", "coordinates": [79.68391879746808, 22.317383172541497]}}, {"type": "Feature", "properties": {"state": "Madhya Pradesh", "name": "Shahdol"}, "geometry": {"type": "Point", "coordinates": [81.43299444525344, 23.46327139979178]}}, {"type": "Feature", "properties": {"state": "Madhya Pradesh", "name": "Shajapur"}, "geometry": {"type": "Point", "coordinates": [76.55814829510396, 23.386300231581398]}}, {"type": "Feature", "properties": {"state": "Madhya Pradesh", "name": "Sheopur"}, "geometry": {"type": "Point", "coordinates": [77.00479219312786, 25.75809656824684]}}, {"type": "Feature", "properties": {"state": "Madhya Pradesh", "name": "Shivpuri"}, "geometry": {"type": "Point", "coordinates": [77.80610464518831, 25.367882647737115]}}, {"type": "Feature", "properties": {"state": "Madhya Pradesh", "name": "Sidhi"}, "geometry": {"type": "Point", "coordinates": [81.82734446895948, 24.222022867490768]}}, {"type": "Feature", "properties": {"state": "Madhya Pradesh", "name": "Singrauli"}, "geometry": {"type": "Point", "coordinates": [82.41282573689976, 24.21838964593848]}}, {"type": "Feature", "properties": {"state": "Madhya Pradesh", "name": "Tikamgarh"}, "geometry": {"type": "Point", "coordinates": [78.93946852607367, 24.99302007550243]}}, {"type": "Feature", "properties": {"state": "Madhya Pradesh", "name": "Ujjain"}, "geometry": {"type": "Point", "coordinates": [75.66741828662332, 23.33517366746136]}}, {"type": "Feature", "properties": {"state": "Madhya Pradesh", "name": "Umaria"}, "geometry": {"type": "Point", "coordinates": [80.91355769701993, 23.606466016272915]}}, {"type": "Feature", "properties": {"state": "Madhya Pradesh", "name": "Vidisha"}, "geometry": {"type": "Point", "coordinates": [77.80819281915726, 23.89694076125093]}}, {"type": "Feature", "properties": {"state": "Madhya Pradesh", "name": "West Nimar"}, "geometry": {"type": "Point", "coordinates": [75.77440133195844, 21.923161967838897]}}, {"type": "Feature", "properties": {"state": "Maharashtra", "name": "Ahmadnagar"}, "geometry": {"type": "Point", "coordinates": [74.64544975318974, 19.23321208597225]}}, {"type": "Feature", "properties": {"state": "Maharashtra", "name": "Akola"}, "geometry": {"type": "Point", "coordinates": [77.04456450771765, 20.750293494783516]}}, {"type": "Feature", "properties": {"state": "Maharashtra", "name": "Amravati"}, "geometry": {"type": "Point", "coordinates": [77.56875795984979, 21.189279947902435]}}, {"type": "Feature", "properties": {"state": "Maharashtra", "name": "Aurangabad"}, "geometry": {"type": "Point", "coordinates": [75.27590295904349, 20.02265654047284]}}, {"type": "Feature", "properties": {"state": "Maharashtra", "name": "Bhandara"}, "geometry": {"type": "Point", "coordinates": [79.86916914175691, 21.159855636102996]}}, {"type": "Feature", "properties": {"state": "Maharashtra", "name": "Bid"}, "geometry": {"type": "Point", "coordinates": [75.80192407915084, 18.925095432273338]}}, {"type": "Feature", "properties": {"state": "Maharashtra", "name": "Buldana"}, "geometry": {"type": "Point", "coordinates": [76.40428037137167, 20.510845508575365]}}, {"type": "Feature", "properties": {"state": "Maharashtra", "name": "Chandrapur"}, "geometry": {"type": "Point", "coordinates": [79.43778428006237, 20.116692528510015]}}, {"type": "Feature", "properties": {"state": "Maharashtra", "name": "Dhule"}, "geometry": {"type": "Point", "coordinates": [74.60487376580336, 21.111528945041528]}}, {"type": "Feature", "properties": {"state": "Maharashtra", "name": "Garhchiroli"}, "geometry": {"type": "Point", "coordinates": [80.23422019760498, 19.782325612182042]}}, {"type": "Feature", "properties": {"state": "Maharashtra", "name": "Gondiya"}, "geometry": {"type": "Point", "coordinates": [80.15476354663517, 21.120976484698176]}}, {"type": "Feature", "properties": {"state": "Maharashtra", "name": "Hingoli"}, "geometry": {"type": "Point", "coordinates": [77.11656076267853, 19.615319765206674]}}, {"type": "Feature", "properties": {"state": "Maharashtra", "name": "Jalgaon"}, "geometry": {"type": "Point", "coordinates": [75.49129366577289, 20.937454849845096]}}, {"type": "Feature", "properties": {"state": "Maharashtra", "name": "Jalna"}, "geometry": {"type": "Point", "coordinates": [75.98257533615939, 19.819752491974366]}}, {"type": "Feature", "properties": {"state": "Maharashtra", "name": "Kolhapur"}, "geometry": {"type": "Point", "coordinates": [74.16729889970959, 16.466783722516457]}}, {"type": "Feature", "properties": {"state": "Maharashtra", "name": "Latur"}, "geometry": {"type": "Point", "coordinates": [76.75955823689843, 18.3735164793609]}}, {"type": "Feature", "properties": {"state": "Maharashtra", "name": "Mumbai City"}, "geometry": {"type": "Point", "coordinates": [72.83741087348082, 18.98569924547266]}}, {"type": "Feature", "properties": {"state": "Maharashtra", "name": "Mumbai Suburban"}, "geometry": {"type": "Point", "coordinates": [72.88210876839078, 19.14269069506909]}}, {"type": "Feature", "properties": {"state": "Maharashtra", "name": "Nagpur"}, "geometry": {"type": "Point", "coordinates": [79.08208815648577, 21.177007275609647]}}, {"type": "Feature", "properties": {"state": "Maharashtra", "name": "Nanded"}, "geometry": {"type": "Point", "coordinates": [77.62071192438755, 19.115239820497678]}}, {"type": "Feature", "properties": {"state": "Maharashtra", "name": "Nandurbar"}, "geometry": {"type": "Point", "coordinates": [74.21994407009639, 21.547281425379275]}}, {"type": "Feature", "properties": {"state": "Maharashtra", "name": "Nashik"}, "geometry": {"type": "Point", "coordinates": [74.07784940860297, 20.259983159364012]}}, {"type": "Feature", "properties": {"state": "Maharashtra", "name": "Osmanabad"}, "geometry": {"type": "Point", "coordinates": [76.03931589307881, 18.188216427072007]}}, {"type": "Feature", "properties": {"state": "Maharashtra", "name": "Palghar"}, "geometry": {"type": "Point", "coordinates": [73.0200437964314, 19.790939247099605]}}, {"type": "Feature", "properties": {"state": "Maharashtra", "name": "Parbhani"}, "geometry": {"type": "Point", "coordinates": [76.68150421773731, 19.285856833535767]}}, {"type": "Feature", "properties": {"state": "Maharashtra", "name": "Pune"}, "geometry": {"type": "Point", "coordinates": [74.07659219934519, 18.570531581597745]}}, {"type": "Feature", "properties": {"state": "Maharashtra", "name": "Raigarh"}, "geometry": {"type": "Point", "coordinates": [73.23018423042318, 18.50997092895392]}}, {"type": "Feature", "properties": {"state": "Maharashtra", "name": "Ratnagiri"}, "geometry": {"type": "Point", "coordinates": [73.46054945743172, 17.27273973630146]}}, {"type": "Feature", "properties": {"state": "Maharashtra", "name": "Sangli"}, "geometry": {"type": "Point", "coordinates": [74.77488615782578, 17.110701985209076]}}, {"type": "Feature", "properties": {"state": "Maharashtra", "name": "Satara"}, "geometry": {"type": "Point", "coordinates": [74.18114744751027, 17.667752148855342]}}, {"type": "Feature", "properties": {"state": "Maharashtra", "name": "Sindhudurg"}, "geometry": {"type": "Point", "coordinates": [73.74293986937188, 16.132246927694467]}}, {"type": "Feature", "properties": {"state": "Maharashtra", "name": "Solapur"}, "geometry": {"type": "Point", "coordinates": [75.48519579001761, 17.788815007797638]}}, {"type": "Feature", "properties": {"state": "Maharashtra", "name": "Thane"}, "geometry": {"type": "Point", "coordinates": [73.33174640989209, 19.359979243103197]}}, {"type": "Feature", "properties": {"state": "Maharashtra", "name": "Wardha"}, "geometry": {"type": "Point", "coordinates": [78.58277748565375, 20.79635342151568]}}, {"type": "Feature", "properties": {"state": "Maharashtra", "name": "Washim"}, "geometry": {"type": "Point", "coordinates": [77.21646955741952, 20.23844278498729]}}, {"type": "Feature", "properties": {"state": "Maharashtra", "name": "Yavatmal"}, "geometry": {"type": "Point", "coordinates": [78.15799948187637, 20.08393163069643]}}, {"type": "Feature", "properties": {"state": "Manipur", "name": "Bishnupur"}, "geometry": {"type": "Point", "coordinates": [93.80277396540492, 24.540073274016077]}}, {"type": "Feature", "properties": {"state": "Manipur", "name": "Chandel"}, "geometry": {"type": "Point", "coordinates": [94.0954268244917, 24.24113884103001]}}, {"type": "Feature", "properties": {"state": "Manipur", "name": "Churachandpur"}, "geometry": {"type": "Point", "coordinates": [93.42100249448794, 24.3037281589379]}}, {"type": "Feature", "properties": {"state": "Manipur", "name": "Imphal East"}, "geometry": {"type": "Point", "coordinates": [93.77580900454578, 24.806285936356588]}}, {"type": "Feature", "properties": {"state": "Manipur", "name": "Imphal West"}, "geometry": {"type": "Point", "coordinates": [93.87757400991413, 24.807609696287074]}}, {"type": "Feature", "properties": {"state": "Manipur", "name": "Senapati"}, "geometry": {"type": "Point", "coordinates": [94.0413502580199, 25.201672143077264]}}, {"type": "Feature", "properties": {"state": "Manipur", "name": "Tamenglong"}, "geometry": {"type": "Point", "coordinates": [93.52812514679916, 24.951402759767607]}}, {"type": "Feature", "properties": {"state": "Manipur", "name": "Thoubal"}, "geometry": {"type": "Point", "coordinates": [93.97354054804444, 24.53626587973736]}}, {"type": "Feature", "properties": {"state": "Manipur", "name": "Ukhrul"}, "geometry": {"type": "Point", "coordinates": [94.4356545342296, 25.0261264902061]}}, {"type": "Feature", "properties": {"state": "Meghalaya", "name": "East Garo Hills"}, "geometry": {"type": "Point", "coordinates": [90.67457263217273, 25.68024303653496]}}, {"type": "Feature", "properties": {"state": "Meghalaya", "name": "East Khasi Hills"}, "geometry": {"type": "Point", "coordinates": [91.8009925587356, 25.384101693271948]}}, {"type": "Feature", "properties": {"state": "Meghalaya", "name": "Jaintia Hills"}, "geometry": {"type": "Point", "coordinates": [92.37965481953015, 25.36853521223604]}}, {"type": "Feature", "properties": {"state": "Meghalaya", "name": "North Garo Hills"}, "geometry": {"type": "Point", "coordinates": [90.5539025496088, 25.883055773927566]}}, {"type": "Feature", "properties": {"state": "Meghalaya", "name": "Ri Bhoi"}, "geometry": {"type": "Point", "coordinates": [91.88752121047817, 25.87518539510336]}}, {"type": "Feature", "properties": {"state": "Meghalaya", "name": "South Garo Hills"}, "geometry": {"type": "Point", "coordinates": [90.59515518605853, 25.30204814668503]}}, {"type": "Feature", "properties": {"state": "Meghalaya", "name": "South West Garo Hills"}, "geometry": {"type": "Point", "coordinates": [89.93620521010159, 25.454393689637445]}}, {"type": "Feature", "properties": {"state": "Meghalaya", "name": "South West Khasi Hills"}, "geometry": {"type": "Point", "coordinates": [91.2507719260957, 25.322823088046928]}}, {"type": "Feature", "properties": {"state": "Meghalaya", "name": "West Garo Hills"}, "geometry": {"type": "Point", "coordinates": [90.18473665766409, 25.617859179515552]}}, {"type": "Feature", "properties": {"state": "Meghalaya", "name": "West Khasi Hills"}, "geometry": {"type": "Point", "coordinates": [91.26110851531156, 25.602733800757022]}}, {"type": "Feature", "properties": {"state": "Mizoram", "name": "Aizawl"}, "geometry": {"type": "Point", "coordinates": [92.88802928313426, 23.836542116377583]}}, {"type": "Feature", "properties": {"state": "Mizoram", "name": "Champhai"}, "geometry": {"type": "Point", "coordinates": [93.23735966074533, 23.54025282254625]}}, {"type": "Feature", "properties": {"state": "Mizoram", "name": "Kolasib"}, "geometry": {"type": "Point", "coordinates": [92.7275787353652, 24.200601981511237]}}, {"type": "Feature", "properties": {"state": "Mizoram", "name": "Lawangtlai"}, "geometry": {"type": "Point", "coordinates": [92.71208682447603, 22.38465803267437]}}, {"type": "Feature", "properties": {"state": "Mizoram", "name": "Lunglei"}, "geometry": {"type": "Point", "coordinates": [92.72194136772114, 22.974388292190078]}}, {"type": "Feature", "properties": {"state": "Mizoram", "name": "Mamit"}, "geometry": {"type": "Point", "coordinates": [92.46644728927298, 23.751969525151612]}}, {"type": "Feature", "properties": {"state": "Mizoram", "name": "Saiha"}, "geometry": {"type": "Point", "coordinates": [93.01462462942025, 22.37936618212829]}}, {"type": "Feature", "properties": {"state": "Mizoram", "name": "Serchhip"}, "geometry": {"type": "Point", "coordinates": [92.94715513789609, 23.28999884362942]}}, {"type": "Feature", "properties": {"state": "Nagaland", "name": "Dimapur"}, "geometry": {"type": "Point", "coordinates": [93.78742444577324, 25.777683979974544]}}, {"type": "Feature", "properties": {"state": "Nagaland", "name": "Kiphire"}, "geometry": {"type": "Point", "coordinates": [94.82570807002325, 25.84854697828144]}}, {"type": "Feature", "properties": {"state": "Nagaland", "name": "Kohima"}, "geometry": {"type": "Point", "coordinates": [94.10650268432573, 25.767067749459585]}}, {"type": "Feature", "properties": {"state": "Nagaland", "name": "Longleng"}, "geometry": {"type": "Point", "coordinates": [94.80289338171801, 26.554837812873544]}}, {"type": "Feature", "properties": {"state": "Nagaland", "name": "Mokokchung"}, "geometry": {"type": "Point", "coordinates": [94.53164451159603, 26.477040971415978]}}, {"type": "Feature", "properties": {"state": "Nagaland", "name": "Mon"}, "geometry": {"type": "Point", "coordinates": [95.02183900765081, 26.68466130429293]}}, {"type": "Feature", "properties": {"state": "Nagaland", "name": "Peren"}, "geometry": {"type": "Point", "coordinates": [93.61725836840733, 25.497898324086243]}}, {"type": "Feature", "properties": {"state": "Nagaland", "name": "Phek"}, "geometry": {"type": "Point", "coordinates": [94.53812808489093, 25.65237417977911]}}, {"type": "Feature", "properties": {"state": "Nagaland", "name": "Tuensang"}, "geometry": {"type": "Point", "coordinates": [94.88852106833801, 26.173221058137376]}}, {"type": "Feature", "properties": {"state": "Nagaland", "name": "Wokha"}, "geometry": {"type": "Point", "coordinates": [94.192585808709, 26.189647918144008]}}, {"type": "Feature", "properties": {"state": "Nagaland", "name": "Zunheboto"}, "geometry": {"type": "Point", "coordinates": [94.48651685962545, 26.008283762535108]}}, {"type": "Feature", "properties": {"state": "N C Tof Delhi", "name": "West"}, "geometry": {"type": "Point", "coordinates": [77.10889895486935, 28.646547834230855]}}, {"type": "Feature", "properties": {"state": "Odisha", "name": "Anugul"}, "geometry": {"type": "Point", "coordinates": [84.90247175679465, 20.980989775398136]}}, {"type": "Feature", "properties": {"state": "Odisha", "name": "Balangir"}, "geometry": {"type": "Point", "coordinates": [83.16657861652602, 20.585936501349543]}}, {"type": "Feature", "properties": {"state": "Odisha", "name": "Baleshwar"}, "geometry": {"type": "Point", "coordinates": [86.9042691843154, 21.48890488873567]}}, {"type": "Feature", "properties": {"state": "Odisha", "name": "Bargarh"}, "geometry": {"type": "Point", "coordinates": [83.34623299449065, 21.216649521464586]}}, {"type": "Feature", "properties": {"state": "Odisha", "name": "Bauda"}, "geometry": {"type": "Point", "coordinates": [84.17059461074408, 20.64138710998746]}}, {"type": "Feature", "properties": {"state": "Odisha", "name": "Bhadrak"}, "geometry": {"type": "Point", "coordinates": [86.61671132385761, 20.97862451806073]}}, {"type": "Feature", "properties": {"state": "Odisha", "name": "Cuttack"}, "geometry": {"type": "Point", "coordinates": [85.69859346102757, 20.44360747560717]}}, {"type": "Feature", "properties": {"state": "Odisha", "name": "Debagarh"}, "geometry": {"type": "Point", "coordinates": [84.79728435165617, 21.462330916534032]}}, {"type": "Feature", "properties": {"state": "Odisha", "name": "Dhenkanal"}, "geometry": {"type": "Point", "coordinates": [85.52030968997606, 20.82010019543892]}}, {"type": "Feature", "properties": {"state": "Odisha", "name": "Gajapati"}, "geometry": {"type": "Point", "coordinates": [84.15332526381287, 19.1650684334399]}}, {"type": "Feature", "properties": {"state": "Odisha", "name": "Ganjam"}, "geometry": {"type": "Point", "coordinates": [84.65869283666594, 19.621780201121734]}}, {"type": "Feature", "properties": {"state": "Odisha", "name": "Jagatsinghapur"}, "geometry": {"type": "Point", "coordinates": [86.33001645328353, 20.216377785866925]}}, {"type": "Feature", "properties": {"state": "Odisha", "name": "Jajapur"}, "geometry": {"type": "Point", "coordinates": [86.1466169670534, 20.849686765938632]}}, {"type": "Feature", "properties": {"state": "Odisha", "name": "Jharsuguda"}, "geometry": {"type": "Point", "coordinates": [83.94789580974941, 21.802942632242285]}}, {"type": "Feature", "properties": {"state": "Odisha", "name": "Kalahandi"}, "geometry": {"type": "Point", "coordinates": [83.1017154228169, 19.861838224986847]}}, {"type": "Feature", "properties": {"state": "Odisha", "name": "Kandhamal"}, "geometry": {"type": "Point", "coordinates": [84.04007347888272, 20.12264199830259]}}, {"type": "Feature", "properties": {"state": "Odisha", "name": "Kendrapara"}, "geometry": {"type": "Point", "coordinates": [86.60468135683587, 20.54693795092537]}}, {"type": "Feature", "properties": {"state": "Odisha", "name": "Kendujhar"}, "geometry": {"type": "Point", "coordinates": [85.69914552597325, 21.532278947341606]}}, {"type": "Feature", "properties": {"state": "Odisha", "name": "Khordha"}, "geometry": {"type": "Point", "coordinates": [85.50511122829367, 20.08255357964225]}}, {"type": "Feature", "properties": {"state": "Odisha", "name": "Koraput"}, "geometry": {"type": "Point", "coordinates": [82.70721022938025, 18.811172712356015]}}, {"type": "Feature", "properties": {"state": "Odisha", "name": "Malkangiri"}, "geometry": {"type": "Point", "coordinates": [81.9480379021291, 18.25049977713884]}}, {"type": "Feature", "properties": {"state": "Odisha", "name": "Mayurbhanj"}, "geometry": {"type": "Point", "coordinates": [86.40585930030399, 21.890650580845307]}}, {"type": "Feature", "properties": {"state": "Odisha", "name": "Nabarangapur"}, "geometry": {"type": "Point", "coordinates": [82.32995350691122, 19.582556388582663]}}, {"type": "Feature", "properties": {"state": "Odisha", "name": "Nayagarh"}, "geometry": {"type": "Point", "coordinates": [84.99290774853858, 20.206207011432255]}}, {"type": "Feature", "properties": {"state": "Odisha", "name": "Nuapada"}, "geometry": {"type": "Point", "coordinates": [82.57088153169211, 20.461470071836175]}}, {"type": "Feature", "properties": {"state": "Odisha", "name": "Puri"}, "geometry": {"type": "Point", "coordinates": [85.69837847106119, 19.865748256515257]}}, {"type": "Feature", "properties": {"state": "Odisha", "name": "Rayagada"}, "geometry": {"type": "Point", "coordinates": [83.50631745638563, 19.35500486038022]}}, {"type": "Feature", "properties": {"state": "Odisha", "name": "Sambalpur"}, "geometry": {"type": "Point", "coordinates": [84.27423742092772, 21.447504972735732]}}, {"type": "Feature", "properties": {"state": "Odisha", "name": "Subarnapur"}, "geometry": {"type": "Point", "coordinates": [83.817802889566, 20.927070925718162]}}, {"type": "Feature", "properties": {"state": "Odisha", "name": "Sundargarh"}, "geometry": {"type": "Point", "coordinates": [84.50396554774983, 22.076622974816967]}}, {"type": "Feature", "properties": {"state": "Puducherry", "name": "Karaikal"}, "geometry": {"type": "Point", "coordinates": [79.79639084395264, 10.913719633675413]}}, {"type": "Feature", "properties": {"state": "Puducherry", "name": "Mahe"}, "geometry": {"type": "Point", "coordinates": [75.28600431832803, 12.074266350262846]}}, {"type": "Feature", "properties": {"state": "Puducherry", "name": "Puducherry"}, "geometry": {"type": "Point", "coordinates": [79.74825988892454, 11.909542361397216]}}, {"type": "Feature", "properties": {"state": "Puducherry", "name": "Yanam"}, "geometry": {"type": "Point", "coordinates": [82.24088347085508, 16.71720668266371]}}, {"type": "Feature", "properties": {"state": "Punjab", "name": "Amritsar"}, "geometry": {"type": "Point", "coordinates": [74.89332272478022, 31.704538178607717]}}, {"type": "Feature", "properties": {"state": "Punjab", "name": "Barnala"}, "geometry": {"type": "Point", "coordinates": [75.49327999340451, 30.3991416568807]}}, {"type": "Feature", "properties": {"state": "Punjab", "name": "Bathinda"}, "geometry": {"type": "Point", "coordinates": [75.02997856586329, 30.184085080977738]}}, {"type": "Feature", "properties": {"state": "Punjab", "name": "Faridkot"}, "geometry": {"type": "Point", "coordinates": [74.76778652611031, 30.611150500676192]}}, {"type": "Feature", "properties": {"state": "Punjab", "name": "Fatehgarh Sahib"}, "geometry": {"type": "Point", "coordinates": [76.34950814664421, 30.635640168888138]}}, {"type": "Feature", "properties": {"state": "Punjab", "name": "Fazilka"}, "geometry": {"type": "Point", "coordinates": [74.14723596846645, 30.257448766449958]}}, {"type": "Feature", "properties": {"state": "Punjab", "name": "Firozpur"}, "geometry": {"type": "Point", "coordinates": [74.66188300652317, 30.89053087606244]}}, {"type": "Feature", "properties": {"state": "Punjab", "name": "Gurdaspur"}, "geometry": {"type": "Point", "coordinates": [75.27916530593262, 31.913702324320653]}}, {"type": "Feature", "properties": {"state": "Punjab", "name": "Hoshiarpur"}, "geometry": {"type": "Point", "coordinates": [75.84461938130868, 31.627349042714837]}}, {"type": "Feature", "properties": {"state": "Punjab", "name": "Jalandhar"}, "geometry": {"type": "Point", "coordinates": [75.5536588359032, 31.2137703887958]}}, {"type": "Feature", "properties": {"state": "Punjab", "name": "Kapurthala"}, "geometry": {"type": "Point", "coordinates": [75.3897147314735, 31.354858602628557]}}, {"type": "Feature", "properties": {"state": "Punjab", "name": "Ludhiana"}, "geometry": {"type": "Point", "coordinates": [75.82399518265646, 30.810657459831674]}}, {"type": "Feature", "properties": {"state": "Punjab", "name": "Mansa"}, "geometry": {"type": "Point", "coordinates": [75.42840496268128, 29.910730762925066]}}, {"type": "Feature", "properties": {"state": "Punjab", "name": "Moga"}, "geometry": {"type": "Point", "coordinates": [75.15798949414366, 30.767041344607343]}}, {"type": "Feature", "properties": {"state": "Punjab", "name": "Muktsar"}, "geometry": {"type": "Point", "coordinates": [74.53065258864783, 30.29468969294181]}}, {"type": "Feature", "properties": {"state": "Punjab", "name": "Pathankot"}, "geometry": {"type": "Point", "coordinates": [75.61438973021154, 32.302697843400566]}}, {"type": "Feature", "properties": {"state": "Punjab", "name": "Patiala"}, "geometry": {"type": "Point", "coordinates": [76.34873084850484, 30.28402019122879]}}, {"type": "Feature", "properties": {"state": "Punjab", "name": "Rupnagar"}, "geometry": {"type": "Point", "coordinates": [76.47275057073928, 31.06242743803828]}}, {"type": "Feature", "properties": {"state": "Punjab", "name": "Sahibzada Ajit Singh Nagar"}, "geometry": {"type": "Point", "coordinates": [76.72403798715588, 30.687683976213787]}}, {"type": "Feature", "properties": {"state": "Punjab", "name": "Sangrur"}, "geometry": {"type": "Point", "coordinates": [75.8573713457776, 30.215467358188018]}}, {"type": "Feature", "properties": {"state": "Punjab", "name": "Shahid Bhagat Singh Nagar"}, "geometry": {"type": "Point", "coordinates": [76.14285063599537, 31.111459140698727]}}, {"type": "Feature", "properties": {"state": "Punjab", "name": "Tarn Taran"}, "geometry": {"type": "Point", "coordinates": [74.83639970893913, 31.336035999041357]}}, {"type": "Feature", "properties": {"state": "Rajasthan", "name": "Ajmer"}, "geometry": {"type": "Point", "coordinates": [74.76429473318728, 26.22811336217131]}}, {"type": "Feature", "properties": {"state": "Rajasthan", "name": "Alwar"}, "geometry": {"type": "Point", "coordinates": [76.59799572458732, 27.596825030920044]}}, {"type": "Feature", "properties": {"state": "Rajasthan", "name": "Banswara"}, "geometry": {"type": "Point", "coordinates": [74.36533827523981, 23.47712723616868]}}, {"type": "Feature", "properties": {"state": "Rajasthan", "name": "Baran"}, "geometry": {"type": "Point", "coordinates": [76.7518949852332, 25.000409005331402]}}, {"type": "Feature", "properties": {"state": "Rajasthan", "name": "Barmer"}, "geometry": {"type": "Point", "coordinates": [71.47894939760008, 25.730154223717708]}}, {"type": "Feature", "properties": {"state": "Rajasthan", "name": "Bharatpur"}, "geometry": {"type": "Point", "coordinates": [77.27074488960547, 27.251264225985576]}}, {"type": "Feature", "properties": {"state": "Rajasthan", "name": "Bhilwara"}, "geometry": {"type": "Point", "coordinates": [74.7268458195499, 25.483074078965668]}}, {"type": "Feature", "properties": {"state": "Rajasthan", "name": "Bikaner"}, "geometry": {"type": "Point", "coordinates": [73.07661725506213, 28.191026358446464]}}, {"type": "Feature", "properties": {"state": "Rajasthan", "name": "Bundi"}, "geometry": {"type": "Point", "coordinates": [75.77373803831374, 25.474322932527432]}}, {"type": "Feature", "properties": {"state": "Rajasthan", "name": "Chittaurgarh"}, "geometry": {"type": "Point", "coordinates": [74.78185432679302, 24.835528418453027]}}, {"type": "Feature", "properties": {"state": "Rajasthan", "name": "Churu"}, "geometry": {"type": "Point", "coordinates": [74.56164857716476, 28.292731880550747]}}, {"type": "Feature", "properties": {"state": "Rajasthan", "name": "Dausa"}, "geometry": {"type": "Point", "coordinates": [76.51998803485466, 26.866121762580242]}}, {"type": "Feature", "properties": {"state": "Rajasthan", "name": "Dhaulpur"}, "geometry": {"type": "Point", "coordinates": [77.69572013024694, 26.68650184933345]}}, {"type": "Feature", "properties": {"state": "Rajasthan", "name": "Dungarpur"}, "geometry": {"type": "Point", "coordinates": [73.85793817599865, 23.734114548237827]}}, {"type": "Feature", "properties": {"state": "Rajasthan", "name": "Ganganagar"}, "geometry": {"type": "Point", "coordinates": [73.59833211684713, 29.407771519302393]}}, {"type": "Feature", "properties": {"state": "Rajasthan", "name": "Hanumangarh"}, "geometry": {"type": "Point", "coordinates": [74.59694172082723, 29.240164299132967]}}, {"type": "Feature", "properties": {"state": "Rajasthan", "name": "Jaipur"}, "geometry": {"type": "Point", "coordinates": [75.71828616062383, 26.98374744008448]}}, {"type": "Feature", "properties": {"state": "Rajasthan", "name": "Jaisalmer"}, "geometry": {"type": "Point", "coordinates": [70.90059343613741, 27.07028018823552]}}, {"type": "Feature", "properties": {"state": "Rajasthan", "name": "Jalor"}, "geometry": {"type": "Point", "coordinates": [72.21691540802678, 25.095003207024416]}}, {"type": "Feature", "properties": {"state": "Rajasthan", "name": "Jhalawar"}, "geometry": {"type": "Point", "coordinates": [76.19373266402627, 24.333114103000614]}}, {"type": "Feature", "properties": {"state": "Rajasthan", "name": "Jhunjhunun"}, "geometry": {"type": "Point", "coordinates": [75.54501143413843, 28.095549562508815]}}, {"type": "Feature", "properties": {"state": "Rajasthan", "name": "Jodhpur"}, "geometry": {"type": "Point", "coordinates": [72.7878409363708, 26.749049606904546]}}, {"type": "Feature", "properties": {"state": "Rajasthan", "name": "Karauli"}, "geometry": {"type": "Point", "coordinates": [76.9395948928774, 26.522252022966295]}}, {"type": "Feature", "properties": {"state": "Rajasthan", "name": "Kota"}, "geometry": {"type": "Point", "coordinates": [76.12542121610218, 25.128689207630746]}}, {"type": "Feature", "properties": {"state": "Rajasthan", "name": "Nagaur"}, "geometry": {"type": "Point", "coordinates": [74.18371193257263, 27.066400714744248]}}, {"type": "Feature", "properties": {"state": "Rajasthan", "name": "Pali"}, "geometry": {"type": "Point", "coordinates": [73.5210098413319, 25.708722650312044]}}, {"type": "Feature", "properties": {"state": "Rajasthan", "name": "Pratapgarh"}, "geometry": {"type": "Point", "coordinates": [74.68124316160335, 24.030825736579757]}}, {"type": "Feature", "properties": {"state": "Rajasthan", "name": "Rajsamand"}, "geometry": {"type": "Point", "coordinates": [73.87525316154527, 25.1973347562517]}}, {"type": "Feature", "properties": {"state": "Rajasthan", "name": "Sawai Madhopur"}, "geometry": {"type": "Point", "coordinates": [76.44437732506827, 26.19278655881999]}}, {"type": "Feature", "properties": {"state": "Rajasthan", "name": "Sikar"}, "geometry": {"type": "Point", "coordinates": [75.2812469514402, 27.640010206780598]}}, {"type": "Feature", "properties": {"state": "Rajasthan", "name": "Sirohi"}, "geometry": {"type": "Point", "coordinates": [72.77900488680945, 24.75839250765586]}}, {"type": "Feature", "properties": {"state": "Rajasthan", "name": "Tonk"}, "geometry": {"type": "Point", "coordinates": [75.66731870222922, 26.1500111580178]}}, {"type": "Feature", "properties": {"state": "Rajasthan", "name": "Udaipur"}, "geometry": {"type": "Point", "coordinates": [73.71460976609396, 24.410973159871578]}}, {"type": "Feature", "properties": {"state": "Sikkim", "name": "East Sikkim"}, "geometry": {"type": "Point", "coordinates": [88.67132576721244, 27.292941117475337]}}, {"type": "Feature", "properties": {"state": "Sikkim", "name": "North Sikkim"}, "geometry": {"type": "Point", "coordinates": [88.52634498149726, 27.743729655590744]}}, {"type": "Feature", "properties": {"state": "Sikkim", "name": "South Sikkim"}, "geometry": {"type": "Point", "coordinates": [88.38047137685932, 27.28684324997377]}}, {"type": "Feature", "properties": {"state": "Sikkim", "name": "West Sikkim"}, "geometry": {"type": "Point", "coordinates": [88.17400480939055, 27.34717450256245]}}, {"type": "Feature", "properties": {"state": "Tamil Nadu", "name": "Ariyalur"}, "geometry": {"type": "Point", "coordinates": [79.22818762521965, 11.146745934859412]}}, {"type": "Feature", "properties": {"state": "Tamil Nadu", "name": "Chennai"}, "geometry": {"type": "Point", "coordinates": [80.23500538766446, 13.047973965685829]}}, {"type": "Feature", "properties": {"state": "Tamil Nadu", "name": "Coimbatore"}, "geometry": {"type": "Point", "coordinates": [76.93085928033157, 10.826797807535193]}}, {"type": "Feature", "properties": {"state": "Tamil Nadu", "name": "Cuddalore"}, "geometry": {"type": "Point", "coordinates": [79.44524909817675, 11.52508861639041]}}, {"type": "Feature", "properties": {"state": "Tamil Nadu", "name": "Dharmapuri"}, "geometry": {"type": "Point", "coordinates": [78.18379657514198, 12.086348233726364]}}, {"type": "Feature", "properties": {"state": "Tamil Nadu", "name": "Dindigul"}, "geometry": {"type": "Point", "coordinates": [77.80495749288644, 10.379292588962342]}}, {"type": "Feature", "properties": {"state": "Tamil Nadu", "name": "Erode"}, "geometry": {"type": "Point", "coordinates": [77.40370938083942, 11.494853085055595]}}, {"type": "Feature", "properties": {"state": "Tamil Nadu", "name": "Kancheepuram"}, "geometry": {"type": "Point", "coordinates": [79.93611652763796, 12.68129901931334]}}, {"type": "Feature", "properties": {"state": "Tamil Nadu", "name": "Kanniyakumari"}, "geometry": {"type": "Point", "coordinates": [77.34653756516802, 8.306080766663628]}}, {"type": "Feature", "properties": {"state": "Tamil Nadu", "name": "Karur"}, "geometry": {"type": "Point", "coordinates": [78.11837348213538, 10.831814671873872]}}, {"type": "Feature", "properties": {"state": "Tamil Nadu", "name": "Krishnagiri"}, "geometry": {"type": "Point", "coordinates": [78.02168459369464, 12.479201287179173]}}, {"type": "Feature", "properties": {"state": "Tamil Nadu", "name": "Madurai"}, "geometry": {"type": "Point", "coordinates": [77.9895682594964, 9.90994816062117]}}, {"type": "Feature", "properties": {"state": "Tamil Nadu", "name": "Nagappattinam"}, "geometry": {"type": "Point", "coordinates": [79.73604663449291, 10.863695985567631]}}, {"type": "Feature", "properties": {"state": "Tamil Nadu", "name": "Namakkal"}, "geometry": {"type": "Point", "coordinates": [78.12244343675711, 11.305378649733605]}}, {"type": "Feature", "properties": {"state": "Tamil Nadu", "name": "Perambalur"}, "geometry": {"type": "Point", "coordinates": [78.87775387405125, 11.260439614701362]}}, {"type": "Feature", "properties": {"state": "Tamil Nadu", "name": "Pudukkottai"}, "geometry": {"type": "Point", "coordinates": [78.86660914991842, 10.342019677140005]}}, {"type": "Feature", "properties": {"state": "Tamil Nadu", "name": "Ramanathapuram"}, "geometry": {"type": "Point", "coordinates": [78.68031021421493, 9.442899830340979]}}, {"type": "Feature", "properties": {"state": "Tamil Nadu", "name": "Salem"}, "geometry": {"type": "Point", "coordinates": [78.20916154688925, 11.66313117363826]}}, {"type": "Feature", "properties": {"state": "Tamil Nadu", "name": "Sivaganga"}, "geometry": {"type": "Point", "coordinates": [78.57602765571052, 9.90701700930029]}}, {"type": "Feature", "properties": {"state": "Tamil Nadu", "name": "Thanjavur"}, "geometry": {"type": "Point", "coordinates": [79.22354894300476, 10.655340812143931]}}, {"type": "Feature", "properties": {"state": "Tamil Nadu", "name": "The Nilgiris"}, "geometry": {"type": "Point", "coordinates": [76.63286072701908, 11.448338430434484]}}, {"type": "Feature", "properties": {"state": "Tamil Nadu", "name": "Theni"}, "geometry": {"type": "Point", "coordinates": [77.42394009914173, 9.88078166569886]}}, {"type": "Feature", "properties": {"state": "Tamil Nadu", "name": "Thiruvallur"}, "geometry": {"type": "Point", "coordinates": [79.93249884137285, 13.235265960006323]}}, {"type": "Feature", "properties": {"state": "Tamil Nadu", "name": "Thiruvarur"}, "geometry": {"type": "Point", "coordinates": [79.53456324399943, 10.669267077597826]}}, {"type": "Feature", "properties": {"state": "Tamil Nadu", "name": "Thoothukkudi"}, "geometry": {"type": "Point", "coordinates": [77.98824061351338, 8.87739412957398]}}, {"type": "Feature", "properties": {"state": "Tamil Nadu", "name": "Tiruchirappalli"}, "geometry": {"type": "Point", "coordinates": [78.55481032286545, 10.876609250403272]}}, {"type": "Feature", "properties": {"state": "Tamil Nadu", "name": "Tirunelveli"}, "geometry": {"type": "Point", "coordinates": [77.5230161801068, 8.79019090451864]}}, {"type": "Feature", "properties": {"state": "Tamil Nadu", "name": "Tiruppur"}, "geometry": {"type": "Point", "coordinates": [77.35240933571397, 10.84557560124696]}}, {"type": "Feature", "properties": {"state": "Tamil Nadu", "name": "Tiruvannamalai"}, "geometry": {"type": "Point", "coordinates": [79.15445888288156, 12.418696990304689]}}, {"type": "Feature", "properties": {"state": "Tamil Nadu", "name": "Vellore"}, "geometry": {"type": "Point", "coordinates": [78.99816990334253, 12.800686935803077]}}, {"type": "Feature", "properties": {"state": "Tamil Nadu", "name": "Viluppuram"}, "geometry": {"type": "Point", "coordinates": [79.28436136436865, 11.960316227644503]}}, {"type": "Feature", "properties": {"state": "Tamil Nadu", "name": "Virudunagar"}, "geometry": {"type": "Point", "coordinates": [77.89439067086275, 9.480581104991069]}}, {"type": "Feature", "properties": {"state": "Telangana", "name": "Adilabad"}, "geometry": {"type": "Point", "coordinates": [78.96663311078741, 19.254409080642013]}}, {"type": "Feature", "properties": {"state": "Telangana", "name": "Hyderabad"}, "geometry": {"type": "Point", "coordinates": [78.4641252049413, 17.385724322596392]}}, {"type": "Feature", "properties": {"state": "Telangana", "name": "Karimnagar"}, "geometry": {"type": "Point", "coordinates": [79.23479847121847, 18.5462384837469]}}, {"type": "Feature", "properties": {"state": "Telangana", "name": "Khammam"}, "geometry": {"type": "Point", "coordinates": [80.67906580146281, 17.58999890304193]}}, {"type": "Feature", "properties": {"state": "Telangana", "name": "Mahbubnagar"}, "geometry": {"type": "Point", "coordinates": [78.1404359952293, 16.49340841950422]}}, {"type": "Feature", "properties": {"state": "Telangana", "name": "Medak"}, "geometry": {"type": "Point", "coordinates": [78.21078213803868, 17.884850942676213]}}, {"type": "Feature", "properties": {"state": "Telangana", "name": "Nalgonda"}, "geometry": {"type": "Point", "coordinates": [79.28145837327459, 17.061882172283948]}}, {"type": "Feature", "properties": {"state": "Telangana", "name": "Nizamabad"}, "geometry": {"type": "Point", "coordinates": [78.13938296511951, 18.523918378983936]}}, {"type": "Feature", "properties": {"state": "Telangana", "name": "Ranga Reddy"}, "geometry": {"type": "Point", "coordinates": [78.17220236380076, 17.284037875005044]}}, {"type": "Feature", "properties": {"state": "Telangana", "name": "Warangal"}, "geometry": {"type": "Point", "coordinates": [79.79167267357116, 17.949943321719346]}}, {"type": "Feature", "properties": {"state": "Tripura", "name": "Dhalai"}, "geometry": {"type": "Point", "coordinates": [91.91026918681746, 23.821036008845905]}}, {"type": "Feature", "properties": {"state": "Tripura", "name": "Gomati"}, "geometry": {"type": "Point", "coordinates": [91.6189922425726, 23.50520683303009]}}, {"type": "Feature", "properties": {"state": "Tripura", "name": "Khowai"}, "geometry": {"type": "Point", "coordinates": [91.65588281420071, 23.944586768666916]}}, {"type": "Feature", "properties": {"state": "Tripura", "name": "North Tripura"}, "geometry": {"type": "Point", "coordinates": [92.21486220672689, 24.096653175799737]}}, {"type": "Feature", "properties": {"state": "Tripura", "name": "Sipahijala"}, "geometry": {"type": "Point", "coordinates": [91.33272727023628, 23.574990021071027]}}, {"type": "Feature", "properties": {"state": "Tripura", "name": "South Tripura"}, "geometry": {"type": "Point", "coordinates": [91.58169860314723, 23.19821325230894]}}, {"type": "Feature", "properties": {"state": "Tripura", "name": "Unokoti"}, "geometry": {"type": "Point", "coordinates": [92.04691199018919, 24.189660962236122]}}, {"type": "Feature", "properties": {"state": "Tripura", "name": "West Tripura"}, "geometry": {"type": "Point", "coordinates": [91.39715848525486, 23.876435802067643]}}, {"type": "Feature", "properties": {"state": "Uttar Pradesh", "name": "Agra"}, "geometry": {"type": "Point", "coordinates": [78.06283973461751, 27.00749795070267]}}, {"type": "Feature", "properties": {"state": "Uttar Pradesh", "name": "Aligarh"}, "geometry": {"type": "Point", "coordinates": [78.07720935103725, 27.926200766014208]}}, {"type": "Feature", "properties": {"state": "Uttar Pradesh", "name": "Allahabad"}, "geometry": {"type": "Point", "coordinates": [81.96481405190036, 25.299929196238978]}}, {"type": "Feature", "properties": {"state": "Uttar Pradesh", "name": "Ambedkar Nagar"}, "geometry": {"type": "Point", "coordinates": [82.65972846782886, 26.423725210614208]}}, {"type": "Feature", "properties": {"state": "Uttar Pradesh", "name": "Amethi"}, "geometry": {"type": "Point", "coordinates": [81.63077978049769, 26.286777551541473]}}, {"type": "Feature", "properties": {"state": "Uttar Pradesh", "name": "Amroha"}, "geometry": {"type": "Point", "coordinates": [78.34915099880553, 28.843399837373706]}}, {"type": "Feature", "properties": {"state": "Uttar Pradesh", "name": "Auraiya"}, "geometry": {"type": "Point", "coordinates": [79.44955251605468, 26.6499525284688]}}, {"type": "Feature", "properties": {"state": "Uttar Pradesh", "name": "Azamgarh"}, "geometry": {"type": "Point", "coordinates": [83.04125844519861, 26.05526830509965]}}, {"type": "Feature", "properties": {"state": "Uttar Pradesh", "name": "Baghpat"}, "geometry": {"type": "Point", "coordinates": [77.30251245262339, 29.060067739890723]}}, {"type": "Feature", "properties": {"state": "Uttar Pradesh", "name": "Bahraich"}, "geometry": {"type": "Point", "coordinates": [81.41270828631642, 27.741411315353794]}}, {"type": "Feature", "properties": {"state": "Uttar Pradesh", "name": "Ballia"}, "geometry": {"type": "Point", "coordinates": [84.0968421551151, 25.87742575164893]}}, {"type": "Feature", "properties": {"state": "Uttar Pradesh", "name": "Balrampur"}, "geometry": {"type": "Point", "coordinates": [82.3688355615647, 27.487101676083856]}}, {"type": "Feature", "properties": {"state": "Uttar Pradesh", "name": "Banda"}, "geometry": {"type": "Point", "coordinates": [80.55263940037744, 25.471229553270128]}}, {"type": "Feature", "properties": {"state": "Uttar Pradesh", "name": "Barabanki"}, "geometry": {"type": "Point", "coordinates": [81.37162757317425, 26.91674261026265]}}, {"type": "Feature", "properties": {"state": "Uttar Pradesh", "name": "Bareilly"}, "geometry": {"type": "Point", "coordinates": [79.41112466131636, 28.455519789876348]}}, {"type": "Feature", "properties": {"state": "Uttar Pradesh", "name": "Basti"}, "geometry": {"type": "Point", "coordinates": [82.60639542457777, 26.78995494029166]}}, {"type": "Feature", "properties": {"state": "Uttar Pradesh", "name": "Bijnor"}, "geometry": {"type": "Point", "coordinates": [78.38684148888724, 29.392818760204367]}}, {"type": "Feature", "properties": {"state": "Uttar Pradesh", "name": "Budaun"}, "geometry": {"type": "Point", "coordinates": [79.03157801283925, 28.08645208464233]}}, {"type": "Feature", "properties": {"state": "Uttar Pradesh", "name": "Bulandshahr"}, "geometry": {"type": "Point", "coordinates": [77.99919025933251, 28.366728502278562]}}, {"type": "Feature", "properties": {"state": "Uttar Pradesh", "name": "Chandauli"}, "geometry": {"type": "Point", "coordinates": [83.25274319868653, 25.139435913774857]}}, {"type": "Feature", "properties": {"state": "Uttar Pradesh", "name": "Chitrakoot"}, "geometry": {"type": "Point", "coordinates": [81.0812636812802, 25.208950641078722]}}, {"type": "Feature", "properties": {"state": "Uttar Pradesh", "name": "Deoria"}, "geometry": {"type": "Point", "coordinates": [83.82745490850701, 26.425450825170884]}}, {"type": "Feature", "properties": {"state": "Uttar Pradesh", "name": "Etah"}, "geometry": {"type": "Point", "coordinates": [78.70206219729053, 27.517681928805402]}}, {"type": "Feature", "properties": {"state": "Uttar Pradesh", "name": "Etawah"}, "geometry": {"type": "Point", "coordinates": [79.08137496417123, 26.789569339838526]}}, {"type": "Feature", "properties": {"state": "Uttar Pradesh", "name": "Faizabad"}, "geometry": {"type": "Point", "coordinates": [82.07049728930183, 26.63474063932307]}}, {"type": "Feature", "properties": {"state": "Uttar Pradesh", "name": "Farrukhabad"}, "geometry": {"type": "Point", "coordinates": [79.45149038264839, 27.436322341681922]}}, {"type": "Feature", "properties": {"state": "Uttar Pradesh", "name": "Fatehpur"}, "geometry": {"type": "Point", "coordinates": [80.79829881011797, 25.877867820072368]}}, {"type": "Feature", "properties": {"state": "Uttar Pradesh", "name": "Firozabad"}, "geometry": {"type": "Point", "coordinates": [78.45666457613017, 27.205995280455895]}}, {"type": "Feature", "properties": {"state": "Uttar Pradesh", "name": "Gautam Buddha Nagar"}, "geometry": {"type": "Point", "coordinates": [77.53743984741038, 28.39574764476143]}}, {"type": "Feature", "properties": {"state": "Uttar Pradesh", "name": "Ghaziabad"}, "geometry": {"type": "Point", "coordinates": [77.47621839909732, 28.778484895758414]}}, {"type": "Feature", "properties": {"state": "Uttar Pradesh", "name": "Ghazipur"}, "geometry": {"type": "Point", "coordinates": [83.54756901718271, 25.624733462335218]}}, {"type": "Feature", "properties": {"state": "Uttar Pradesh", "name": "Gonda"}, "geometry": {"type": "Point", "coordinates": [82.01247816653864, 27.08774877879131]}}, {"type": "Feature", "properties": {"state": "Uttar Pradesh", "name": "Gorakhpur"}, "geometry": {"type": "Point", "coordinates": [83.35998193741945, 26.62578547656916]}}, {"type": "Feature", "properties": {"state": "Uttar Pradesh", "name": "Hamirpur"}, "geometry": {"type": "Point", "coordinates": [79.87073565898659, 25.736550660354656]}}, {"type": "Feature", "properties": {"state": "Uttar Pradesh", "name": "Hapur"}, "geometry": {"type": "Point", "coordinates": [77.8701528698375, 28.71783239038493]}}, {"type": "Feature", "properties": {"state": "Uttar Pradesh", "name": "Hardoi"}, "geometry": {"type": "Point", "coordinates": [80.15249150357006, 27.334417519364838]}}, {"type": "Feature", "properties": {"state": "Uttar Pradesh", "name": "Hathras"}, "geometry": {"type": "Point", "coordinates": [78.14411454988841, 27.57620200151241]}}, {"type": "Feature", "properties": {"state": "Uttar Pradesh", "name": "Jalaun"}, "geometry": {"type": "Point", "coordinates": [79.37966987348678, 26.096267197409]}}, {"type": "Feature", "properties": {"state": "Uttar Pradesh", "name": "Jaunpur"}, "geometry": {"type": "Point", "coordinates": [82.56708428997239, 25.74914695361804]}}, {"type": "Feature", "properties": {"state": "Uttar Pradesh", "name": "Jhansi"}, "geometry": {"type": "Point", "coordinates": [78.94650286734912, 25.51054778201178]}}, {"type": "Feature", "properties": {"state": "Uttar Pradesh", "name": "Kannauj"}, "geometry": {"type": "Point", "coordinates": [79.67846877668048, 27.017704614692327]}}, {"type": "Feature", "properties": {"state": "Uttar Pradesh", "name": "Kanpur Dehat"}, "geometry": {"type": "Point", "coordinates": [79.84659259077125, 26.444970727597344]}}, {"type": "Feature", "properties": {"state": "Uttar Pradesh", "name": "Kanpur Nagar"}, "geometry": {"type": "Point", "coordinates": [80.20230900439898, 26.39232993234611]}}, {"type": "Feature", "properties": {"state": "Uttar Pradesh", "name": "Kasganj"}, "geometry": {"type": "Point", "coordinates": [78.83677925834174, 27.78223892102449]}}, {"type": "Feature", "properties": {"state": "Uttar Pradesh", "name": "Kaushambi"}, "geometry": {"type": "Point", "coordinates": [81.45904249829947, 25.491399063847624]}}, {"type": "Feature", "properties": {"state": "Uttar Pradesh", "name": "Kushinagar"}, "geometry": {"type": "Point", "coordinates": [83.92532425168396, 26.864659923440037]}}, {"type": "Feature", "properties": {"state": "Uttar Pradesh", "name": "Lakhimpur Kheri"}, "geometry": {"type": "Point", "coordinates": [80.65658340560317, 28.127580896704753]}}, {"type": "Feature", "properties": {"state": "Uttar Pradesh", "name": "Lalitpur"}, "geometry": {"type": "Point", "coordinates": [78.55527662979789, 24.658056374390217]}}, {"type": "Feature", "properties": {"state": "Uttar Pradesh", "name": "Lucknow"}, "geometry": {"type": "Point", "coordinates": [80.8969811394033, 26.84663318597752]}}, {"type": "Feature", "properties": {"state": "Uttar Pradesh", "name": "Maharajganj"}, "geometry": {"type": "Point", "coordinates": [83.50087871993499, 27.188206590042004]}}, {"type": "Feature", "properties": {"state": "Uttar Pradesh", "name": "Mahoba"}, "geometry": {"type": "Point", "coordinates": [79.69270290013839, 25.352412670593445]}}, {"type": "Feature", "properties": {"state": "Uttar Pradesh", "name": "Mainpuri"}, "geometry": {"type": "Point", "coordinates": [79.04395373549558, 27.18648752756935]}}, {"type": "Feature", "properties": {"state": "Uttar Pradesh", "name": "Mathura"}, "geometry": {"type": "Point", "coordinates": [77.62084376143746, 27.600606747564065]}}, {"type": "Feature", "properties": {"state": "Uttar Pradesh", "name": "Mau"}, "geometry": {"type": "Point", "coordinates": [83.50276065182317, 26.03537914296753]}}, {"type": "Feature", "properties": {"state": "Uttar Pradesh", "name": "Meerut"}, "geometry": {"type": "Point", "coordinates": [77.7835633433521, 29.04165820977847]}}, {"type": "Feature", "properties": {"state": "Uttar Pradesh", "name": "Mirzapur"}, "geometry": {"type": "Point", "coordinates": [82.610799147107, 24.987826037168023]}}, {"type": "Feature", "properties": {"state": "Uttar Pradesh", "name": "Moradabad"}, "geometry": {"type": "Point", "coordinates": [78.78176878817607, 28.878185156167273]}}, {"type": "Feature", "properties": {"state": "Uttar Pradesh", "name": "Muzaffarnagar"}, "geometry": {"type": "Point", "coordinates": [77.72781401475453, 29.417767364054527]}}, {"type": "Feature", "properties": {"state": "Uttar Pradesh", "name": "Pilibhit"}, "geometry": {"type": "Point", "coordinates": [79.95032501139347, 28.547771853970183]}}, {"type": "Feature", "properties": {"state": "Uttar Pradesh", "name": "Pratapgarh"}, "geometry": {"type": "Point", "coordinates": [81.82252895699084, 25.876427350092804]}}, {"type": "Feature", "properties": {"state": "Uttar Pradesh", "name": "Rae Bareli"}, "geometry": {"type": "Point", "coordinates": [81.12550092504266, 26.230444049512602]}}, {"type": "Feature", "properties": {"state": "Uttar Pradesh", "name": "Rampur"}, "geometry": {"type": "Point", "coordinates": [79.0939898632692, 28.801564372967455]}}, {"type": "Feature", "properties": {"state": "Uttar Pradesh", "name": "Saharanpur"}, "geometry": {"type": "Point", "coordinates": [77.53539303953059, 29.954714982991547]}}, {"type": "Feature", "properties": {"state": "Uttar Pradesh", "name": "Sambhal"}, "geometry": {"type": "Point", "coordinates": [78.52763329550692, 28.454048546346936]}}, {"type": "Feature", "properties": {"state": "Uttar Pradesh", "name": "Sant Kabir Nagar"}, "geometry": {"type": "Point", "coordinates": [83.03006209106351, 26.74774948738576]}}, {"type": "Feature", "properties": {"state": "Uttar Pradesh", "name": "Sant Ravi Das Nagar"}, "geometry": {"type": "Point", "coordinates": [82.45552057564551, 25.35097104344364]}}, {"type": "Feature", "properties": {"state": "Uttar Pradesh", "name": "Shahjahanpur"}, "geometry": {"type": "Point", "coordinates": [79.83423697388953, 27.981723418091246]}}, {"type": "Feature", "properties": {"state": "Uttar Pradesh", "name": "Shamli"}, "geometry": {"type": "Point", "coordinates": [77.27652164089022, 29.499655081747974]}}, {"type": "Feature", "properties": {"state": "Uttar Pradesh", "name": "Shravasti"}, "geometry": {"type": "Point", "coordinates": [81.81590754830748, 27.678378557407044]}}, {"type": "Feature", "properties": {"state": "Uttar Pradesh", "name": "Siddharth Nagar"}, "geometry": {"type": "Point", "coordinates": [82.860404865252, 27.23280530341375]}}, {"type": "Feature", "properties": {"state": "Uttar Pradesh", "name": "Sitapur"}, "geometry": {"type": "Point", "coordinates": [80.84696096806259, 27.523205793982644]}}, {"type": "Feature", "properties": {"state": "Uttar Pradesh", "name": "Sonbhadra"}, "geometry": {"type": "Point", "coordinates": [83.0455707784801, 24.40359815966159]}}, {"type": "Feature", "properties": {"state": "Uttar Pradesh", "name": "Sultanpur"}, "geometry": {"type": "Point", "coordinates": [82.21736945746389, 26.247126801187385]}}, {"type": "Feature", "properties": {"state": "Uttar Pradesh", "name": "Unnao"}, "geometry": {"type": "Point", "coordinates": [80.54994048680818, 26.614378806721238]}}, {"type": "Feature", "properties": {"state": "Uttar Pradesh", "name": "Varanasi"}, "geometry": {"type": "Point", "coordinates": [82.90902753151326, 25.390620677438022]}}, {"type": "Feature", "properties": {"state": "Uttarakhand", "name": "Almora"}, "geometry": {"type": "Point", "coordinates": [79.48899574105982, 29.695182101441695]}}, {"type": "Feature", "properties": {"state": "Uttarakhand", "name": "Bageshwar"}, "geometry": {"type": "Point", "coordinates": [79.84598660269158, 29.9969952469128]}}, {"type": "Feature", "properties": {"state": "Uttarakhand", "name": "Chamoli"}, "geometry": {"type": "Point", "coordinates": [79.5550208533125, 30.496348079286594]}}, {"type": "Feature", "properties": {"state": "Uttarakhand", "name": "Chamoli"}, "geometry": {"type": "Point", "coordinates": [80.03528363717642, 30.812906016229615]}}, {"type": "Feature", "properties": {"state": "Uttarakhand", "name": "Champawat"}, "geometry": {"type": "Point", "coordinates": [80.06171989412744, 29.30306262818551]}}, {"type": "Feature", "properties": {"state": "Uttarakhand", "name": "Dehradun"}, "geometry": {"type": "Point", "coordinates": [77.95974123634589, 30.468575320231302]}}, {"type": "Feature", "properties": {"state": "Uttarakhand", "name": "Garhwal"}, "geometry": {"type": "Point", "coordinates": [78.75670609972536, 29.89869162991114]}}, {"type": "Feature", "properties": {"state": "Uttarakhand", "name": "Hardwar"}, "geometry": {"type": "Point", "coordinates": [77.98874158235735, 29.877310608440112]}}, {"type": "Feature", "properties": {"state": "Uttarakhand", "name": "Nainital"}, "geometry": {"type": "Point", "coordinates": [79.45496642836459, 29.316768651121908]}}, {"type": "Feature", "properties": {"state": "Uttarakhand", "name": "Pithoragarh"}, "geometry": {"type": "Point", "coordinates": [80.33888289354682, 30.094382524212566]}}, {"type": "Feature", "properties": {"state": "Uttarakhand", "name": "Pithoragarh"}, "geometry": {"type": "Point", "coordinates": [80.151218171336, 30.720352006408046]}}, {"type": "Feature", "properties": {"state": "Uttarakhand", "name": "Rudraprayag"}, "geometry": {"type": "Point", "coordinates": [79.0984195557708, 30.594941528362266]}}, {"type": "Feature", "properties": {"state": "Uttarakhand", "name": "Tehri Garhwal"}, "geometry": {"type": "Point", "coordinates": [78.56973759103829, 30.442807415597333]}}, {"type": "Feature", "properties": {"state": "Uttarakhand", "name": "Udham Singh Nagar"}, "geometry": {"type": "Point", "coordinates": [79.49911226895472, 29.043041086904093]}}, {"type": "Feature", "properties": {"state": "Uttarakhand", "name": "Uttarkashi"}, "geometry": {"type": "Point", "coordinates": [78.51736986053012, 30.939586685562304]}}, {"type": "Feature", "properties": {"state": "Uttarakhand", "name": "Uttarkashi"}, "geometry": {"type": "Point", "coordinates": [79.10574728065836, 31.255988843200335]}}, {"type": "Feature", "properties": {"state": "West Bengal", "name": "Alipurduar"}, "geometry": {"type": "Point", "coordinates": [89.46109002057648, 26.63293661688173]}}, {"type": "Feature", "properties": {"state": "West Bengal", "name": "Bankura"}, "geometry": {"type": "Point", "coordinates": [87.12996638833118, 23.138237499722347]}}, {"type": "Feature", "properties": {"state": "West Bengal", "name": "Barddhaman"}, "geometry": {"type": "Point", "coordinates": [87.76331070128364, 23.42535979340434]}}, {"type": "Feature", "properties": {"state": "West Bengal", "name": "Birbhum"}, "geometry": {"type": "Point", "coordinates": [87.66159504317133, 23.95173000597733]}}, {"type": "Feature", "properties": {"state": "West Bengal", "name": "Dakshin Dinajpur"}, "geometry": {"type": "Point", "coordinates": [88.5946234512719, 25.361265915720818]}}, {"type": "Feature", "properties": {"state": "West Bengal", "name": "Darjiling"}, "geometry": {"type": "Point", "coordinates": [88.39241155957978, 26.914394761127443]}}, {"type": "Feature", "properties": {"state": "West Bengal", "name": "Haora"}, "geometry": {"type": "Point", "coordinates": [88.06460231385668, 22.523696913482674]}}, {"type": "Feature", "properties": {"state": "West Bengal", "name": "Hugli"}, "geometry": {"type": "Point", "coordinates": [88.07595010590921, 22.8815904827173]}}, {"type": "Feature", "properties": {"state": "West Bengal", "name": "Jalpaiguri"}, "geometry": {"type": "Point", "coordinates": [88.76393180360563, 26.68621768976423]}}, {"type": "Feature", "properties": {"state": "West Bengal", "name": "Koch Bihar"}, "geometry": {"type": "Point", "coordinates": [89.34134199139667, 26.29222375512409]}}, {"type": "Feature", "properties": {"state": "West Bengal", "name": "Kolkata"}, "geometry": {"type": "Point", "coordinates": [88.35227707016303, 22.551602291938785]}}, {"type": "Feature", "properties": {"state": "West Bengal", "name": "Maldah"}, "geometry": {"type": "Point", "coordinates": [88.0876506273828, 25.135787912087096]}}, {"type": "Feature", "properties": {"state": "West Bengal", "name": "Murshidabad"}, "geometry": {"type": "Point", "coordinates": [88.2293926197988, 24.161653630533987]}}, {"type": "Feature", "properties": {"state": "West Bengal", "name": "Nadia"}, "geometry": {"type": "Point", "coordinates": [88.51727251182587, 23.47687959099639]}}, {"type": "Feature", "properties": {"state": "West Bengal", "name": "North24 Parganas"}, "geometry": {"type": "Point", "coordinates": [88.77831271690803, 22.463798184731814]}}, {"type": "Feature", "properties": {"state": "West Bengal", "name": "Pashchim Medinipur"}, "geometry": {"type": "Point", "coordinates": [87.26237383778007, 22.410450554782763]}}, {"type": "Feature", "properties": {"state": "West Bengal", "name": "Purba Medinipur"}, "geometry": {"type": "Point", "coordinates": [87.77436416816325, 22.026756593755884]}}, {"type": "Feature", "properties": {"state": "West Bengal", "name": "Puruliya"}, "geometry": {"type": "Point", "coordinates": [86.4126449200661, 23.275006886305192]}}, {"type": "Feature", "properties": {"state": "West Bengal", "name": "South24 Parganas"}, "geometry": {"type": "Point", "coordinates": [88.41610447331455, 22.114522756685293]}}, {"type": "Feature", "properties": {"state": "West Bengal", "name": "Uttar Dinajpur"}, "geometry": {"type": "Point", "coordinates": [88.15714963274577, 25.873923923938992]}}]}